$GPGLL,5159.2052,N,00421.1561,E,045655.000,A,A*57
$GPGLL,5159.2077,N,00421.1618,E,045656.000,A,A*5E
$GPGLL,5159.2101,N,00421.1670,E,045657.000,A,A*51
$GPGLL,5159.2126,N,00421.1719,E,045658.000,A,A*55
$GPGLL,5159.2148,N,00421.1764,E,045659.000,A,A*56
$GPGLL,5159.2149,N,00421.1805,E,045700.000,A,A*52
$GPGLL,5159.2125,N,00421.1848,E,045701.000,A,A*50
$GPGLL,5159.2091,N,00421.1879,E,045702.000,A,A*5F
$GPGLL,5159.2054,N,00421.1895,E,045703.000,A,A*55
$GPGLL,5159.2016,N,00421.1887,E,045704.000,A,A*57
$GPGLL,5159.1978,N,00421.1868,E,045705.000,A,A*55
$GPGLL,5159.1938,N,00421.1852,E,045706.000,A,A*5B
$GPGLL,5159.1898,N,00421.1845,E,045707.000,A,A*57
$GPGLL,5159.1856,N,00421.1850,E,045708.000,A,A*5E
$GPGLL,5159.1815,N,00421.1859,E,045709.000,A,A*51
$GPGLL,5159.1773,N,00421.1870,E,045710.000,A,A*5D
$GPGLL,5159.1731,N,00421.1880,E,045711.000,A,A*55
$GPGLL,5159.1688,N,00421.1890,E,045712.000,A,A*54
$GPGLL,5159.1643,N,00421.1900,E,045713.000,A,A*5A
$GPGLL,5159.1599,N,00421.1912,E,045714.000,A,A*5A
$GPGLL,5159.1555,N,00421.1928,E,045715.000,A,A*52
$GPGLL,5159.1513,N,00421.1942,E,045716.000,A,A*5F
$GPGLL,5159.1472,N,00421.1959,E,045717.000,A,A*52
$GPGLL,5159.1431,N,00421.1979,E,045718.000,A,A*58
$GPGLL,5159.1391,N,00421.1998,E,045719.000,A,A*5B
$GPGLL,5159.1350,N,00421.2013,E,045720.000,A,A*55
$GPGLL,5159.1308,N,00421.2030,E,045721.000,A,A*58
$GPGLL,5159.1266,N,00421.2048,E,045722.000,A,A*5D
$GPGLL,5159.1222,N,00421.2065,E,045723.000,A,A*53
$GPGLL,5159.1177,N,00421.2081,E,045724.000,A,A*5D
$GPGLL,5159.1134,N,00421.2099,E,045725.000,A,A*52
$GPGLL,5159.1091,N,00421.2115,E,045726.000,A,A*5A
$GPGLL,5159.1045,N,00421.2127,E,045727.000,A,A*53
$GPGLL,5159.0999,N,00421.2141,E,045728.000,A,A*55
$GPGLL,5159.0954,N,00421.2161,E,045729.000,A,A*57
$GPGLL,5159.0910,N,00421.2180,E,045730.000,A,A*50
$GPGLL,5159.0865,N,00421.2197,E,045731.000,A,A*54
$GPGLL,5159.0818,N,00421.2214,E,045732.000,A,A*55
$GPGLL,5159.0774,N,00421.2231,E,045733.000,A,A*56
$GPGLL,5159.0729,N,00421.2244,E,045734.000,A,A*5B
$GPGLL,5159.0683,N,00421.2261,E,045735.000,A,A*5C
$GPGLL,5159.0637,N,00421.2278,E,045736.000,A,A*58
$GPGLL,5159.0593,N,00421.2293,E,045737.000,A,A*51
$GPGLL,5159.0550,N,00421.2309,E,045738.000,A,A*53
$GPGLL,5159.0510,N,00421.2327,E,045739.000,A,A*5A
$GPGLL,5159.0467,N,00421.2342,E,045740.000,A,A*56
$GPGLL,5159.0424,N,00421.2359,E,045741.000,A,A*5A
$GPGLL,5159.0382,N,00421.2375,E,045742.000,A,A*5C
$GPGLL,5159.0341,N,00421.2392,E,045743.000,A,A*5B
$GPGLL,5159.0299,N,00421.2413,E,045744.000,A,A*56
$GPGLL,5159.0257,N,00421.2432,E,045745.000,A,A*56
$GPGLL,5159.0212,N,00421.2449,E,045746.000,A,A*58
$GPGLL,5159.0167,N,00421.2463,E,045747.000,A,A*50
$GPGLL,5159.0121,N,00421.2482,E,045748.000,A,A*52
$GPGLL,5159.0076,N,00421.2498,E,045749.000,A,A*5B
$GPGLL,5159.0030,N,00421.2514,E,045750.000,A,A*54
$GPGLL,5158.9985,N,00421.2527,E,045751.000,A,A*5A
$GPGLL,5158.9939,N,00421.2540,E,045752.000,A,A*5F
$GPGLL,5158.9895,N,00421.2555,E,045753.000,A,A*5D
$GPGLL,5158.9849,N,00421.2573,E,045754.000,A,A*5F
$GPGLL,5158.9803,N,00421.2593,E,045755.000,A,A*5E
$GPGLL,5158.9757,N,00421.2612,E,045756.000,A,A*59
$GPGLL,5158.9711,N,00421.2629,E,045757.000,A,A*52
$GPGLL,5158.9667,N,00421.2648,E,045758.000,A,A*5A
$GPGLL,5158.9621,N,00421.2665,E,045759.000,A,A*56
$GPGLL,5158.9575,N,00421.2683,E,045800.000,A,A*5F
$GPGLL,5158.9531,N,00421.2702,E,045801.000,A,A*56
$GPGLL,5158.9486,N,00421.2718,E,045802.000,A,A*53
$GPGLL,5158.9441,N,00421.2735,E,045803.000,A,A*56
$GPGLL,5158.9396,N,00421.2750,E,045804.000,A,A*5F
$GPGLL,5158.9350,N,00421.2771,E,045805.000,A,A*57
$GPGLL,5158.9305,N,00421.2790,E,045806.000,A,A*5B
$GPGLL,5158.9261,N,00421.2805,E,045807.000,A,A*5A
$GPGLL,5158.9217,N,00421.2823,E,045808.000,A,A*50
$GPGLL,5158.9171,N,00421.2843,E,045809.000,A,A*54
$GPGLL,5158.9127,N,00421.2856,E,045810.000,A,A*5B
$GPGLL,5158.9082,N,00421.2869,E,045811.000,A,A*58
$GPGLL,5158.9036,N,00421.2887,E,045812.000,A,A*54
$GPGLL,5158.8989,N,00421.2907,E,045813.000,A,A*50
$GPGLL,5158.8943,N,00421.2926,E,045814.000,A,A*52
$GPGLL,5158.8896,N,00421.2944,E,045815.000,A,A*5E
$GPGLL,5158.8854,N,00421.2960,E,045816.000,A,A*55
$GPGLL,5158.8810,N,00421.2976,E,045817.000,A,A*53
$GPGLL,5158.8764,N,00421.2993,E,045818.000,A,A*5B
$GPGLL,5158.8720,N,00421.3010,E,045819.000,A,A*59
$GPGLL,5158.8677,N,00421.3026,E,045820.000,A,A*55
$GPGLL,5158.8635,N,00421.3042,E,045821.000,A,A*50
$GPGLL,5158.8592,N,00421.3058,E,045822.000,A,A*56
$GPGLL,5158.8548,N,00421.3077,E,045823.000,A,A*5D
$GPGLL,5158.8503,N,00421.3094,E,045824.000,A,A*58
$GPGLL,5158.8459,N,00421.3112,E,045825.000,A,A*58
$GPGLL,5158.8415,N,00421.3127,E,045826.000,A,A*55
$GPGLL,5158.8370,N,00421.3144,E,045827.000,A,A*55
$GPGLL,5158.8327,N,00421.3159,E,045828.000,A,A*54
$GPGLL,5158.8285,N,00421.3177,E,045829.000,A,A*50
$GPGLL,5158.8241,N,00421.3192,E,045830.000,A,A*5B
$GPGLL,5158.8195,N,00421.3207,E,045831.000,A,A*5F
$GPGLL,5158.8151,N,00421.3224,E,045832.000,A,A*55
$GPGLL,5158.8107,N,00421.3242,E,045833.000,A,A*57
$GPGLL,5158.8062,N,00421.3258,E,045834.000,A,A*59
$GPGLL,5158.8019,N,00421.3276,E,045835.000,A,A*58
$GPGLL,5158.7975,N,00421.3292,E,045836.000,A,A*5D
$GPGLL,5158.7932,N,00421.3311,E,045837.000,A,A*55
$GPGLL,5158.7887,N,00421.3327,E,045838.000,A,A*50
$GPGLL,5158.7844,N,00421.3339,E,045839.000,A,A*51
$GPGLL,5158.7800,N,00421.3352,E,045840.000,A,A*52
$GPGLL,5158.7754,N,00421.3368,E,045841.000,A,A*54
$GPGLL,5158.7706,N,00421.3383,E,045842.000,A,A*55
$GPGLL,5158.7660,N,00421.3397,E,045843.000,A,A*50
$GPGLL,5158.7613,N,00421.3416,E,045844.000,A,A*5D
$GPGLL,5158.7567,N,00421.3436,E,045845.000,A,A*5E
$GPGLL,5158.7520,N,00421.3451,E,045846.000,A,A*5F
$GPGLL,5158.7473,N,00421.3468,E,045847.000,A,A*53
$GPGLL,5158.7430,N,00421.3488,E,045848.000,A,A*55
$GPGLL,5158.7386,N,00421.3508,E,045849.000,A,A*57
$GPGLL,5158.7340,N,00421.3529,E,045850.000,A,A*56
$GPGLL,5158.7294,N,00421.3548,E,045851.000,A,A*58
$GPGLL,5158.7248,N,00421.3568,E,045852.000,A,A*58
$GPGLL,5158.7206,N,00421.3586,E,045853.000,A,A*53
$GPGLL,5158.7166,N,00421.3603,E,045854.000,A,A*5F
$GPGLL,5158.7123,N,00421.3622,E,045855.000,A,A*5C
$GPGLL,5158.7084,N,00421.3637,E,045856.000,A,A*57
$GPGLL,5158.7050,N,00421.3654,E,045857.000,A,A*5A
$GPGLL,5158.7027,N,00421.3673,E,045858.000,A,A*50
$GPGLL,5158.7016,N,00421.3702,E,045859.000,A,A*54
$GPGLL,5158.7017,N,00421.3742,E,045900.000,A,A*5C
$GPGLL,5158.7025,N,00421.3792,E,045901.000,A,A*51
$GPGLL,5158.7032,N,00421.3845,E,045902.000,A,A*51
$GPGLL,5158.7041,N,00421.3900,E,045903.000,A,A*54
$GPGLL,5158.7049,N,00421.3958,E,045904.000,A,A*56
$GPGLL,5158.7055,N,00421.4022,E,045905.000,A,A*59
$GPGLL,5158.7064,N,00421.4085,E,045906.000,A,A*55
$GPGLL,5158.7077,N,00421.4151,E,045907.000,A,A*5E
$GPGLL,5158.7090,N,00421.4219,E,045908.000,A,A*57
$GPGLL,5158.7103,N,00421.4286,E,045909.000,A,A*5B
$GPGLL,5158.7117,N,00421.4354,E,045910.000,A,A*58
$GPGLL,5158.7131,N,00421.4423,E,045911.000,A,A*5A
$GPGLL,5158.7143,N,00421.4490,E,045912.000,A,A*54
$GPGLL,5158.7155,N,00421.4560,E,045913.000,A,A*5C
$GPGLL,5158.7165,N,00421.4625,E,045914.000,A,A*5A
$GPGLL,5158.7176,N,00421.4696,E,045915.000,A,A*51
$GPGLL,5158.7190,N,00421.4768,E,045916.000,A,A*5A
$GPGLL,5158.7201,N,00421.4838,E,045917.000,A,A*5A
$GPGLL,5158.7212,N,00421.4908,E,045918.000,A,A*55
$GPGLL,5158.7224,N,00421.4982,E,045919.000,A,A*53
$GPGLL,5158.7237,N,00421.5055,E,045920.000,A,A*59
$GPGLL,5158.7248,N,00421.5123,E,045921.000,A,A*50
$GPGLL,5158.7259,N,00421.5191,E,045922.000,A,A*5A
$GPGLL,5158.7271,N,00421.5261,E,045923.000,A,A*5D
$GPGLL,5158.7283,N,00421.5330,E,045924.000,A,A*52
$GPGLL,5158.7297,N,00421.5399,E,045925.000,A,A*55
$GPGLL,5158.7309,N,00421.5470,E,045926.000,A,A*50
$GPGLL,5158.7321,N,00421.5541,E,045927.000,A,A*58
$GPGLL,5158.7330,N,00421.5612,E,045928.000,A,A*52
$GPGLL,5158.7341,N,00421.5685,E,045929.000,A,A*5B
$GPGLL,5158.7351,N,00421.5755,E,045930.000,A,A*5E
$GPGLL,5158.7364,N,00421.5826,E,045931.000,A,A*52
$GPGLL,5158.7374,N,00421.5895,E,045932.000,A,A*58
$GPGLL,5158.7387,N,00421.5966,E,045933.000,A,A*58
$GPGLL,5158.7398,N,00421.6036,E,045934.000,A,A*5E
$GPGLL,5158.7410,N,00421.6107,E,045935.000,A,A*5B
$GPGLL,5158.7421,N,00421.6177,E,045936.000,A,A*5D
$GPGLL,5158.7436,N,00421.6246,E,045937.000,A,A*5B
$GPGLL,5158.7448,N,00421.6314,E,045938.000,A,A*5B
$GPGLL,5158.7459,N,00421.6382,E,045939.000,A,A*55
$GPGLL,5158.7467,N,00421.6448,E,045940.000,A,A*57
$GPGLL,5158.7472,N,00421.6514,E,045941.000,A,A*5A
$GPGLL,5158.7475,N,00421.6583,E,045942.000,A,A*50
$GPGLL,5158.7462,N,00421.6652,E,045943.000,A,A*58
$GPGLL,5158.7436,N,00421.6707,E,045944.000,A,A*5F
$GPGLL,5158.7407,N,00421.6747,E,045945.000,A,A*58
$GPGLL,5158.7381,N,00421.6790,E,045946.000,A,A*58
$GPGLL,5158.7354,N,00421.6845,E,045947.000,A,A*56
$GPGLL,5158.7325,N,00421.6902,E,045948.000,A,A*5D
$GPGLL,5158.7294,N,00421.6961,E,045949.000,A,A*52
$GPGLL,5158.7262,N,00421.7018,E,045950.000,A,A*55
$GPGLL,5158.7230,N,00421.7074,E,045951.000,A,A*59
$GPGLL,5158.7200,N,00421.7130,E,045952.000,A,A*58
$GPGLL,5158.7170,N,00421.7188,E,045953.000,A,A*5E
$GPGLL,5158.7141,N,00421.7243,E,045954.000,A,A*5F
$GPGLL,5158.7113,N,00421.7299,E,045955.000,A,A*5E
$GPGLL,5158.7084,N,00421.7355,E,045956.000,A,A*53
$GPGLL,5158.7055,N,00421.7410,E,045957.000,A,A*58
$GPGLL,5158.7026,N,00421.7465,E,045958.000,A,A*51
$GPGLL,5158.6996,N,00421.7519,E,045959.000,A,A*59
$GPGLL,5158.6967,N,00421.7576,E,050000.000,A,A*5F
$GPGLL,5158.6941,N,00421.7634,E,050001.000,A,A*5F
$GPGLL,5158.6922,N,00421.7694,E,050002.000,A,A*53
$GPGLL,5158.6922,N,00421.7762,E,050003.000,A,A*5A
$GPGLL,5158.6941,N,00421.7831,E,050004.000,A,A*51
$GPGLL,5158.6961,N,00421.7899,E,050005.000,A,A*50
$GPGLL,5158.6981,N,00421.7971,E,050006.000,A,A*5A
$GPGLL,5158.6997,N,00421.8040,E,050007.000,A,A*58
$GPGLL,5158.7013,N,00421.8107,E,050008.000,A,A*51
$GPGLL,5158.7025,N,00421.8179,E,050009.000,A,A*5C
$GPGLL,5158.7038,N,00421.8251,E,050010.000,A,A*51
$GPGLL,5158.7049,N,00421.8317,E,050011.000,A,A*55
$GPGLL,5158.7062,N,00421.8387,E,050012.000,A,A*56
$GPGLL,5158.7076,N,00421.8457,E,050013.000,A,A*58
$GPGLL,5158.7088,N,00421.8524,E,050014.000,A,A*5B
$GPGLL,5158.7100,N,00421.8592,E,050015.000,A,A*56
$GPGLL,5158.7114,N,00421.8659,E,050016.000,A,A*54
$GPGLL,5158.7128,N,00421.8726,E,050017.000,A,A*53
$GPGLL,5158.7141,N,00421.8791,E,050018.000,A,A*5F
$GPGLL,5158.7152,N,00421.8857,E,050019.000,A,A*59
$GPGLL,5158.7158,N,00421.8928,E,050020.000,A,A*50
$GPGLL,5158.7165,N,00421.8995,E,050021.000,A,A*59
$GPGLL,5158.7163,N,00421.9057,E,050022.000,A,A*5A
$GPGLL,5158.7154,N,00421.9117,E,050023.000,A,A*5A
$GPGLL,5158.7141,N,00421.9181,E,050024.000,A,A*56
$GPGLL,5158.7122,N,00421.9241,E,050025.000,A,A*5D
$GPGLL,5158.7103,N,00421.9306,E,050026.000,A,A*5F
$GPGLL,5158.7082,N,00421.9371,E,050027.000,A,A*56
$GPGLL,5158.7060,N,00421.9435,E,050028.000,A,A*52
$GPGLL,5158.7030,N,00421.9485,E,050029.000,A,A*5D
$GPGLL,5158.6989,N,00421.9523,E,050030.000,A,A*52
$GPGLL,5158.6948,N,00421.9537,E,050031.000,A,A*5B
$GPGLL,5158.6904,N,00421.9545,E,050032.000,A,A*55
$GPGLL,5158.6862,N,00421.9560,E,050033.000,A,A*52
$GPGLL,5158.6818,N,00421.9573,E,050034.000,A,A*5A
$GPGLL,5158.6775,N,00421.9593,E,050035.000,A,A*51
$GPGLL,5158.6732,N,00421.9610,E,050036.000,A,A*59
$GPGLL,5158.6689,N,00421.9628,E,050037.000,A,A*52
$GPGLL,5158.6645,N,00421.9646,E,050038.000,A,A*55
$GPGLL,5158.6602,N,00421.9663,E,050039.000,A,A*50
$GPGLL,5158.6558,N,00421.9683,E,050040.000,A,A*5C
$GPGLL,5158.6514,N,00421.9699,E,050041.000,A,A*5E
$GPGLL,5158.6470,N,00421.9718,E,050042.000,A,A*56
$GPGLL,5158.6427,N,00421.9735,E,050043.000,A,A*5A
$GPGLL,5158.6385,N,00421.9753,E,050044.000,A,A*52
$GPGLL,5158.6344,N,00421.9772,E,050045.000,A,A*5D
$GPGLL,5158.6303,N,00421.9790,E,050046.000,A,A*51
$GPGLL,5158.6261,N,00421.9808,E,050047.000,A,A*5B
$GPGLL,5158.6219,N,00421.9827,E,050048.000,A,A*56
$GPGLL,5158.6179,N,00421.9850,E,050049.000,A,A*52
$GPGLL,5158.6140,N,00421.9878,E,050050.000,A,A*5A
$GPGLL,5158.6104,N,00421.9913,E,050051.000,A,A*57
$GPGLL,5158.6067,N,00421.9957,E,050052.000,A,A*50
$GPGLL,5158.6031,N,00421.9999,E,050053.000,A,A*50
$GPGLL,5158.5994,N,00422.0048,E,050054.000,A,A*5D
$GPGLL,5158.5960,N,00422.0093,E,050055.000,A,A*51
$GPGLL,5158.5924,N,00422.0140,E,050056.000,A,A*5D
$GPGLL,5158.5889,N,00422.0184,E,050057.000,A,A*52
$GPGLL,5158.5856,N,00422.0231,E,050058.000,A,A*52
$GPGLL,5158.5822,N,00422.0275,E,050059.000,A,A*50
$GPGLL,5158.5787,N,00422.0322,E,050100.000,A,A*5E
$GPGLL,5158.5750,N,00422.0368,E,050101.000,A,A*5B
$GPGLL,5158.5713,N,00422.0412,E,050102.000,A,A*55
$GPGLL,5158.5676,N,00422.0456,E,050103.000,A,A*56
$GPGLL,5158.5639,N,00422.0502,E,050104.000,A,A*5A
$GPGLL,5158.5606,N,00422.0551,E,050105.000,A,A*51
$GPGLL,5158.5573,N,00422.0597,E,050106.000,A,A*59
$GPGLL,5158.5537,N,00422.0642,E,050107.000,A,A*53
$GPGLL,5158.5501,N,00422.0687,E,050108.000,A,A*50
$GPGLL,5158.5466,N,00422.0731,E,050109.000,A,A*5D
$GPGLL,5158.5430,N,00422.0771,E,050110.000,A,A*52
$GPGLL,5158.5394,N,00422.0813,E,050111.000,A,A*51
$GPGLL,5158.5358,N,00422.0855,E,050112.000,A,A*50
$GPGLL,5158.5323,N,00422.0899,E,050113.000,A,A*5D
$GPGLL,5158.5287,N,00422.0946,E,050114.000,A,A*56
$GPGLL,5158.5250,N,00422.0993,E,050115.000,A,A*55
$GPGLL,5158.5214,N,00422.1034,E,050116.000,A,A*53
$GPGLL,5158.5180,N,00422.1080,E,050117.000,A,A*53
$GPGLL,5158.5148,N,00422.1122,E,050118.000,A,A*51
$GPGLL,5158.5115,N,00422.1165,E,050119.000,A,A*5B
$GPGLL,5158.5079,N,00422.1212,E,050120.000,A,A*59
$GPGLL,5158.5040,N,00422.1255,E,050121.000,A,A*51
$GPGLL,5158.5000,N,00422.1301,E,050122.000,A,A*56
$GPGLL,5158.4962,N,00422.1342,E,050123.000,A,A*5C
$GPGLL,5158.4921,N,00422.1385,E,050124.000,A,A*57
$GPGLL,5158.4880,N,00422.1431,E,050125.000,A,A*54
$GPGLL,5158.4843,N,00422.1473,E,050126.000,A,A*5E
$GPGLL,5158.4807,N,00422.1522,E,050127.000,A,A*5A
$GPGLL,5158.4771,N,00422.1573,E,050128.000,A,A*5F
$GPGLL,5158.4736,N,00422.1618,E,050129.000,A,A*53
$GPGLL,5158.4704,N,00422.1661,E,050130.000,A,A*54
$GPGLL,5158.4671,N,00422.1708,E,050131.000,A,A*58
$GPGLL,5158.4637,N,00422.1757,E,050132.000,A,A*53
$GPGLL,5158.4599,N,00422.1802,E,050133.000,A,A*5A
$GPGLL,5158.4562,N,00422.1845,E,050134.000,A,A*5A
$GPGLL,5158.4524,N,00422.1889,E,050135.000,A,A*59
$GPGLL,5158.4487,N,00422.1931,E,050136.000,A,A*50
$GPGLL,5158.4450,N,00422.1968,E,050137.000,A,A*57
$GPGLL,5158.4415,N,00422.1996,E,050138.000,A,A*58
$GPGLL,5158.4380,N,00422.2029,E,050139.000,A,A*5C
$GPGLL,5158.4348,N,00422.2067,E,050140.000,A,A*5C
$GPGLL,5158.4309,N,00422.2110,E,050141.000,A,A*59
$GPGLL,5158.4267,N,00422.2150,E,050142.000,A,A*57
$GPGLL,5158.4225,N,00422.2187,E,050143.000,A,A*5A
$GPGLL,5158.4183,N,00422.2224,E,050144.000,A,A*58
$GPGLL,5158.4143,N,00422.2257,E,050145.000,A,A*51
$GPGLL,5158.4102,N,00422.2288,E,050146.000,A,A*55
$GPGLL,5158.4059,N,00422.2315,E,050147.000,A,A*5E
$GPGLL,5158.4014,N,00422.2341,E,050148.000,A,A*59
$GPGLL,5158.3967,N,00422.2369,E,050149.000,A,A*58
$GPGLL,5158.3920,N,00422.2395,E,050150.000,A,A*50
$GPGLL,5158.3871,N,00422.2424,E,050151.000,A,A*59
$GPGLL,5158.3824,N,00422.2447,E,050152.000,A,A*5F
$GPGLL,5158.3776,N,00422.2467,E,050153.000,A,A*54
$GPGLL,5158.3730,N,00422.2489,E,050154.000,A,A*51
$GPGLL,5158.3684,N,00422.2510,E,050155.000,A,A*5F
$GPGLL,5158.3637,N,00422.2531,E,050156.000,A,A*57
$GPGLL,5158.3589,N,00422.2553,E,050157.000,A,A*54
$GPGLL,5158.3543,N,00422.2578,E,050158.000,A,A*54
$GPGLL,5158.3498,N,00422.2605,E,050159.000,A,A*5B
$GPGLL,5158.3452,N,00422.2631,E,050200.000,A,A*55
$GPGLL,5158.3407,N,00422.2660,E,050201.000,A,A*50
$GPGLL,5158.3364,N,00422.2687,E,050202.000,A,A*58
$GPGLL,5158.3325,N,00422.2724,E,050203.000,A,A*54
$GPGLL,5158.3289,N,00422.2771,E,050204.000,A,A*54
$GPGLL,5158.3256,N,00422.2829,E,050205.000,A,A*55
$GPGLL,5158.3228,N,00422.2895,E,050206.000,A,A*58
$GPGLL,5158.3202,N,00422.2961,E,050207.000,A,A*5B
$GPGLL,5158.3176,N,00422.3028,E,050208.000,A,A*51
$GPGLL,5158.3152,N,00422.3097,E,050209.000,A,A*52
$GPGLL,5158.3129,N,00422.3167,E,050210.000,A,A*58
$GPGLL,5158.3106,N,00422.3239,E,050211.000,A,A*5C
$GPGLL,5158.3084,N,00422.3310,E,050212.000,A,A*5E
$GPGLL,5158.3064,N,00422.3375,E,050213.000,A,A*52
$GPGLL,5158.3041,N,00422.3439,E,050214.000,A,A*5D
$GPGLL,5158.3019,N,00422.3505,E,050215.000,A,A*5F
$GPGLL,5158.2996,N,00422.3571,E,050216.000,A,A*50
$GPGLL,5158.2974,N,00422.3639,E,050217.000,A,A*52
$GPGLL,5158.2952,N,00422.3707,E,050218.000,A,A*55
$GPGLL,5158.2932,N,00422.3775,E,050219.000,A,A*57
$GPGLL,5158.2909,N,00422.3844,E,050220.000,A,A*58
$GPGLL,5158.2887,N,00422.3910,E,050221.000,A,A*5E
$GPGLL,5158.2864,N,00422.3977,E,050222.000,A,A*51
$GPGLL,5158.2841,N,00422.4044,E,050223.000,A,A*59
$GPGLL,5158.2819,N,00422.4112,E,050224.000,A,A*51
$GPGLL,5158.2797,N,00422.4182,E,050225.000,A,A*50
$GPGLL,5158.2775,N,00422.4251,E,050226.000,A,A*52
$GPGLL,5158.2755,N,00422.4318,E,050227.000,A,A*5D
$GPGLL,5158.2734,N,00422.4385,E,050228.000,A,A*51
$GPGLL,5158.2711,N,00422.4453,E,050229.000,A,A*5B
$GPGLL,5158.2689,N,00422.4521,E,050230.000,A,A*57
$GPGLL,5158.2665,N,00422.4584,E,050231.000,A,A*5B
$GPGLL,5158.2636,N,00422.4640,E,050232.000,A,A*55
$GPGLL,5158.2598,N,00422.4671,E,050233.000,A,A*51
$GPGLL,5158.2552,N,00422.4696,E,050234.000,A,A*59
$GPGLL,5158.2508,N,00422.4727,E,050235.000,A,A*5C
$GPGLL,5158.2474,N,00422.4763,E,050236.000,A,A*55
$GPGLL,5158.2448,N,00422.4815,E,050237.000,A,A*55
$GPGLL,5158.2431,N,00422.4882,E,050238.000,A,A*5A
$GPGLL,5158.2428,N,00422.4954,E,050239.000,A,A*59
$GPGLL,5158.2429,N,00422.5029,E,050240.000,A,A*54
$GPGLL,5158.2418,N,00422.5103,E,050241.000,A,A*5E
$GPGLL,5158.2390,N,00422.5165,E,050242.000,A,A*5A
$GPGLL,5158.2352,N,00422.5204,E,050243.000,A,A*51
$GPGLL,5158.2306,N,00422.5229,E,050244.000,A,A*58
$GPGLL,5158.2259,N,00422.5251,E,050245.000,A,A*5D
$GPGLL,5158.2215,N,00422.5277,E,050246.000,A,A*52
$GPGLL,5158.2172,N,00422.5308,E,050247.000,A,A*58
$GPGLL,5158.2127,N,00422.5338,E,050248.000,A,A*54
$GPGLL,5158.2082,N,00422.5363,E,050249.000,A,A*55
$GPGLL,5158.2035,N,00422.5389,E,050250.000,A,A*55
$GPGLL,5158.1988,N,00422.5414,E,050251.000,A,A*5B
$GPGLL,5158.1941,N,00422.5440,E,050252.000,A,A*5C
$GPGLL,5158.1895,N,00422.5466,E,050253.000,A,A*51
$GPGLL,5158.1848,N,00422.5490,E,050254.000,A,A*5F
$GPGLL,5158.1802,N,00422.5514,E,050255.000,A,A*5D
$GPGLL,5158.1755,N,00422.5538,E,050256.000,A,A*5D
$GPGLL,5158.1708,N,00422.5563,E,050257.000,A,A*5A
$GPGLL,5158.1660,N,00422.5588,E,050258.000,A,A*5F
$GPGLL,5158.1615,N,00422.5611,E,050259.000,A,A*5F
$GPGLL,5158.1570,N,00422.5636,E,050300.000,A,A*57
$GPGLL,5158.1526,N,00422.5663,E,050301.000,A,A*55
$GPGLL,5158.1479,N,00422.5690,E,050302.000,A,A*51
$GPGLL,5158.1432,N,00422.5715,E,050303.000,A,A*53
$GPGLL,5158.1384,N,00422.5738,E,050304.000,A,A*51
$GPGLL,5158.1339,N,00422.5763,E,050305.000,A,A*58
$GPGLL,5158.1292,N,00422.5790,E,050306.000,A,A*57
$GPGLL,5158.1245,N,00422.5815,E,050307.000,A,A*5E
$GPGLL,5158.1197,N,00422.5841,E,050308.000,A,A*5C
$GPGLL,5158.1149,N,00422.5869,E,050309.000,A,A*54
$GPGLL,5158.1104,N,00422.5897,E,050310.000,A,A*54
$GPGLL,5158.1057,N,00422.5922,E,050311.000,A,A*5D
$GPGLL,5158.1011,N,00422.5946,E,050312.000,A,A*5E
$GPGLL,5158.0965,N,00422.5969,E,050313.000,A,A*59
$GPGLL,5158.0918,N,00422.5994,E,050314.000,A,A*56
$GPGLL,5158.0871,N,00422.6019,E,050315.000,A,A*56
$GPGLL,5158.0824,N,00422.6044,E,050316.000,A,A*5D
$GPGLL,5158.0779,N,00422.6066,E,050317.000,A,A*5B
$GPGLL,5158.0733,N,00422.6092,E,050318.000,A,A*51
$GPGLL,5158.0688,N,00422.6115,E,050319.000,A,A*5F
$GPGLL,5158.0641,N,00422.6137,E,050320.000,A,A*50
$GPGLL,5158.0592,N,00422.6161,E,050321.000,A,A*5F
$GPGLL,5158.0543,N,00422.6184,E,050322.000,A,A*5B
$GPGLL,5158.0496,N,00422.6212,E,050323.000,A,A*5F
$GPGLL,5158.0449,N,00422.6238,E,050324.000,A,A*52
$GPGLL,5158.0403,N,00422.6264,E,050325.000,A,A*54
$GPGLL,5158.0357,N,00422.6287,E,050326.000,A,A*5C
$GPGLL,5158.0311,N,00422.6312,E,050327.000,A,A*52
$GPGLL,5158.0265,N,00422.6339,E,050328.000,A,A*56
$GPGLL,5158.0218,N,00422.6365,E,050329.000,A,A*54
$GPGLL,5158.0173,N,00422.6391,E,050330.000,A,A*59
$GPGLL,5158.0126,N,00422.6417,E,050331.000,A,A*51
$GPGLL,5158.0080,N,00422.6441,E,050332.000,A,A*5C
$GPGLL,5158.0032,N,00422.6466,E,050333.000,A,A*51
$GPGLL,5157.9984,N,00422.6489,E,050334.000,A,A*55
$GPGLL,5157.9937,N,00422.6515,E,050335.000,A,A*58
$GPGLL,5157.9891,N,00422.6539,E,050336.000,A,A*58
$GPGLL,5157.9843,N,00422.6564,E,050337.000,A,A*5E
$GPGLL,5157.9796,N,00422.6589,E,050338.000,A,A*55
$GPGLL,5157.9749,N,00422.6615,E,050339.000,A,A*50
$GPGLL,5157.9704,N,00422.6643,E,050340.000,A,A*54
$GPGLL,5157.9658,N,00422.6667,E,050341.000,A,A*5B
$GPGLL,5157.9611,N,00422.6690,E,050342.000,A,A*5D
$GPGLL,5157.9564,N,00422.6715,E,050343.000,A,A*51
$GPGLL,5157.9518,N,00422.6740,E,050344.000,A,A*5D
$GPGLL,5157.9473,N,00422.6765,E,050345.000,A,A*57
$GPGLL,5157.9425,N,00422.6787,E,050346.000,A,A*5B
$GPGLL,5157.9380,N,00422.6811,E,050347.000,A,A*52
$GPGLL,5157.9333,N,00422.6836,E,050348.000,A,A*50
$GPGLL,5157.9286,N,00422.6860,E,050349.000,A,A*5D
$GPGLL,5157.9239,N,00422.6884,E,050350.000,A,A*5B
$GPGLL,5157.9192,N,00422.6907,E,050351.000,A,A*52
$GPGLL,5157.9145,N,00422.6929,E,050352.000,A,A*57
$GPGLL,5157.9100,N,00422.6955,E,050353.000,A,A*5C
$GPGLL,5157.9056,N,00422.6981,E,050354.000,A,A*50
$GPGLL,5157.9009,N,00422.7005,E,050355.000,A,A*5F
$GPGLL,5157.8963,N,00422.7029,E,050356.000,A,A*56
$GPGLL,5157.8916,N,00422.7053,E,050357.000,A,A*58
$GPGLL,5157.8869,N,00422.7078,E,050358.000,A,A*57
$GPGLL,5157.8823,N,00422.7103,E,050359.000,A,A*55
$GPGLL,5157.8777,N,00422.7129,E,050400.000,A,A*58
$GPGLL,5157.8730,N,00422.7155,E,050401.000,A,A*51
$GPGLL,5157.8683,N,00422.7177,E,050402.000,A,A*5B
$GPGLL,5157.8636,N,00422.7201,E,050403.000,A,A*56
$GPGLL,5157.8589,N,00422.7222,E,050404.000,A,A*57
$GPGLL,5157.8542,N,00422.7246,E,050405.000,A,A*53
$GPGLL,5157.8495,N,00422.7269,E,050406.000,A,A*56
$GPGLL,5157.8448,N,00422.7293,E,050407.000,A,A*52
$GPGLL,5157.8399,N,00422.7316,E,050408.000,A,A*5A
$GPGLL,5157.8350,N,00422.7344,E,050409.000,A,A*59
$GPGLL,5157.8302,N,00422.7371,E,050410.000,A,A*50
$GPGLL,5157.8254,N,00422.7399,E,050411.000,A,A*55
$GPGLL,5157.8205,N,00422.7426,E,050412.000,A,A*51
$GPGLL,5157.8157,N,00422.7451,E,050413.000,A,A*54
$GPGLL,5157.8109,N,00422.7478,E,050414.000,A,A*53
$GPGLL,5157.8063,N,00422.7502,E,050415.000,A,A*53
$GPGLL,5157.8017,N,00422.7526,E,050416.000,A,A*55
$GPGLL,5157.7971,N,00422.7552,E,050417.000,A,A*51
$GPGLL,5157.7925,N,00422.7575,E,050418.000,A,A*5A
$GPGLL,5157.7881,N,00422.7599,E,050419.000,A,A*56
$GPGLL,5157.7834,N,00422.7625,E,050420.000,A,A*56
$GPGLL,5157.7790,N,00422.7653,E,050421.000,A,A*57
$GPGLL,5157.7745,N,00422.7679,E,050422.000,A,A*54
$GPGLL,5157.7700,N,00422.7705,E,050423.000,A,A*5E
$GPGLL,5157.7658,N,00422.7730,E,050424.000,A,A*53
$GPGLL,5157.7614,N,00422.7755,E,050425.000,A,A*59
$GPGLL,5157.7570,N,00422.7775,E,050426.000,A,A*59
$GPGLL,5157.7527,N,00422.7796,E,050427.000,A,A*57
$GPGLL,5157.7484,N,00422.7803,E,050428.000,A,A*53
$GPGLL,5157.7448,N,00422.7777,E,050429.000,A,A*5E
$GPGLL,5157.7427,N,00422.7718,E,050430.000,A,A*56
$GPGLL,5157.7414,N,00422.7650,E,050431.000,A,A*5A
$GPGLL,5157.7404,N,00422.7580,E,050432.000,A,A*56
$GPGLL,5157.7392,N,00422.7508,E,050433.000,A,A*5F
$GPGLL,5157.7377,N,00422.7432,E,050434.000,A,A*5B
$GPGLL,5157.7361,N,00422.7352,E,050435.000,A,A*5C
$GPGLL,5157.7345,N,00422.7269,E,050436.000,A,A*50
$GPGLL,5157.7331,N,00422.7186,E,050437.000,A,A*50
$GPGLL,5157.7317,N,00422.7103,E,050438.000,A,A*56
$GPGLL,5157.7304,N,00422.7018,E,050439.000,A,A*5E
$GPGLL,5157.7291,N,00422.6933,E,050440.000,A,A*5C
$GPGLL,5157.7279,N,00422.6849,E,050441.000,A,A*57
$GPGLL,5157.7266,N,00422.6764,E,050442.000,A,A*5A
$GPGLL,5157.7253,N,00422.6681,E,050443.000,A,A*57
$GPGLL,5157.7239,N,00422.6596,E,050444.000,A,A*59
$GPGLL,5157.7227,N,00422.6512,E,050445.000,A,A*5B
$GPGLL,5157.7214,N,00422.6428,E,050446.000,A,A*50
$GPGLL,5157.7200,N,00422.6345,E,050447.000,A,A*58
$GPGLL,5157.7188,N,00422.6262,E,050448.000,A,A*50
$GPGLL,5157.7176,N,00422.6179,E,050449.000,A,A*59
$GPGLL,5157.7163,N,00422.6095,E,050450.000,A,A*56
$GPGLL,5157.7148,N,00422.6013,E,050451.000,A,A*50
$GPGLL,5157.7133,N,00422.5933,E,050452.000,A,A*57
$GPGLL,5157.7121,N,00422.5850,E,050453.000,A,A*51
$GPGLL,5157.7110,N,00422.5768,E,050454.000,A,A*50
$GPGLL,5157.7097,N,00422.5684,E,050455.000,A,A*5C
$GPGLL,5157.7084,N,00422.5604,E,050456.000,A,A*55
$GPGLL,5157.7072,N,00422.5529,E,050457.000,A,A*51
$GPGLL,5157.7058,N,00422.5473,E,050458.000,A,A*58
$GPGLL,5157.7041,N,00422.5442,E,050459.000,A,A*53
$GPGLL,5157.7008,N,00422.5430,E,050500.000,A,A*56
$GPGLL,5157.6976,N,00422.5448,E,050501.000,A,A*59
$GPGLL,5157.6944,N,00422.5471,E,050502.000,A,A*51
$GPGLL,5157.6908,N,00422.5493,E,050503.000,A,A*54
$GPGLL,5157.6870,N,00422.5515,E,050504.000,A,A*52
$GPGLL,5157.6831,N,00422.5537,E,050505.000,A,A*56
$GPGLL,5157.6794,N,00422.5560,E,050506.000,A,A*57
$GPGLL,5157.6754,N,00422.5582,E,050507.000,A,A*56
$GPGLL,5157.6714,N,00422.5607,E,050508.000,A,A*53
$GPGLL,5157.6676,N,00422.5633,E,050509.000,A,A*50
$GPGLL,5157.6638,N,00422.5657,E,050510.000,A,A*50
$GPGLL,5157.6601,N,00422.5681,E,050511.000,A,A*50
$GPGLL,5157.6564,N,00422.5703,E,050512.000,A,A*58
$GPGLL,5157.6527,N,00422.5722,E,050513.000,A,A*5D
$GPGLL,5157.6497,N,00422.5722,E,050514.000,A,A*50
$GPGLL,5157.6475,N,00422.5698,E,050515.000,A,A*5D
$GPGLL,5157.6464,N,00422.5659,E,050516.000,A,A*53
$GPGLL,5157.6456,N,00422.5614,E,050517.000,A,A*5A
$GPGLL,5157.6445,N,00422.5565,E,050518.000,A,A*52
$GPGLL,5157.6431,N,00422.5516,E,050519.000,A,A*54
$GPGLL,5157.6407,N,00422.5482,E,050520.000,A,A*57
$GPGLL,5157.6369,N,00422.5469,E,050521.000,A,A*5C
$GPGLL,5157.6330,N,00422.5478,E,050522.000,A,A*53
$GPGLL,5157.6290,N,00422.5501,E,050523.000,A,A*56
$GPGLL,5157.6251,N,00422.5521,E,050524.000,A,A*5E
$GPGLL,5157.6211,N,00422.5537,E,050525.000,A,A*5C
$GPGLL,5157.6166,N,00422.5552,E,050526.000,A,A*5F
$GPGLL,5157.6119,N,00422.5573,E,050527.000,A,A*55
$GPGLL,5157.6072,N,00422.5594,E,050528.000,A,A*5F
$GPGLL,5157.6025,N,00422.5616,E,050529.000,A,A*55
$GPGLL,5157.5977,N,00422.5637,E,050530.000,A,A*53
$GPGLL,5157.5930,N,00422.5656,E,050531.000,A,A*56
$GPGLL,5157.5883,N,00422.5675,E,050532.000,A,A*5D
$GPGLL,5157.5837,N,00422.5695,E,050533.000,A,A*5D
$GPGLL,5157.5790,N,00422.5718,E,050534.000,A,A*5C
$GPGLL,5157.5742,N,00422.5744,E,050535.000,A,A*5B
$GPGLL,5157.5695,N,00422.5770,E,050536.000,A,A*54
$GPGLL,5157.5649,N,00422.5795,E,050537.000,A,A*5F
$GPGLL,5157.5602,N,00422.5820,E,050538.000,A,A*5E
$GPGLL,5157.5556,N,00422.5846,E,050539.000,A,A*5D
$GPGLL,5157.5510,N,00422.5868,E,050540.000,A,A*5D
$GPGLL,5157.5463,N,00422.5889,E,050541.000,A,A*56
$GPGLL,5157.5417,N,00422.5909,E,050542.000,A,A*5F
$GPGLL,5157.5372,N,00422.5932,E,050543.000,A,A*52
$GPGLL,5157.5326,N,00422.5955,E,050544.000,A,A*55
$GPGLL,5157.5281,N,00422.5975,E,050545.000,A,A*5A
$GPGLL,5157.5234,N,00422.5998,E,050546.000,A,A*54
$GPGLL,5157.5188,N,00422.6022,E,050547.000,A,A*5A
$GPGLL,5157.5143,N,00422.6046,E,050548.000,A,A*50
$GPGLL,5157.5098,N,00422.6073,E,050549.000,A,A*50
$GPGLL,5157.5053,N,00422.6099,E,050550.000,A,A*5B
$GPGLL,5157.5008,N,00422.6124,E,050551.000,A,A*53
$GPGLL,5157.4962,N,00422.6146,E,050552.000,A,A*50
$GPGLL,5157.4917,N,00422.6169,E,050553.000,A,A*5E
$GPGLL,5157.4871,N,00422.6194,E,050554.000,A,A*5A
$GPGLL,5157.4825,N,00422.6219,E,050555.000,A,A*5C
$GPGLL,5157.4779,N,00422.6244,E,050556.000,A,A*51
$GPGLL,5157.4734,N,00422.6269,E,050557.000,A,A*56
$GPGLL,5157.4687,N,00422.6291,E,050558.000,A,A*57
$GPGLL,5157.4640,N,00422.6313,E,050559.000,A,A*56
$GPGLL,5157.4595,N,00422.6335,E,050600.000,A,A*56
$GPGLL,5157.4550,N,00422.6354,E,050601.000,A,A*59
$GPGLL,5157.4504,N,00422.6371,E,050602.000,A,A*5C
$GPGLL,5157.4457,N,00422.6385,E,050603.000,A,A*51
$GPGLL,5157.4411,N,00422.6400,E,050604.000,A,A*5E
$GPGLL,5157.4365,N,00422.6419,E,050605.000,A,A*53
$GPGLL,5157.4319,N,00422.6439,E,050606.000,A,A*59
$GPGLL,5157.4273,N,00422.6457,E,050607.000,A,A*5D
$GPGLL,5157.4227,N,00422.6477,E,050608.000,A,A*51
$GPGLL,5157.4181,N,00422.6495,E,050609.000,A,A*53
$GPGLL,5157.4135,N,00422.6514,E,050610.000,A,A*5C
$GPGLL,5157.4089,N,00422.6535,E,050611.000,A,A*58
$GPGLL,5157.4045,N,00422.6561,E,050612.000,A,A*5A
$GPGLL,5157.4001,N,00422.6590,E,050613.000,A,A*55
$GPGLL,5157.3959,N,00422.6621,E,050614.000,A,A*58
$GPGLL,5157.3918,N,00422.6654,E,050615.000,A,A*5E
$GPGLL,5157.3878,N,00422.6687,E,050616.000,A,A*54
$GPGLL,5157.3836,N,00422.6720,E,050617.000,A,A*53
$GPGLL,5157.3794,N,00422.6753,E,050618.000,A,A*5F
$GPGLL,5157.3751,N,00422.6782,E,050619.000,A,A*5B
$GPGLL,5157.3708,N,00422.6805,E,050620.000,A,A*5D
$GPGLL,5157.3662,N,00422.6822,E,050621.000,A,A*54
$GPGLL,5157.3615,N,00422.6834,E,050622.000,A,A*50
$GPGLL,5157.3569,N,00422.6846,E,050623.000,A,A*5C
$GPGLL,5157.3524,N,00422.6853,E,050624.000,A,A*56
$GPGLL,5157.3478,N,00422.6863,E,050625.000,A,A*5C
$GPGLL,5157.3433,N,00422.6873,E,050626.000,A,A*51
$GPGLL,5157.3387,N,00422.6883,E,050627.000,A,A*57
$GPGLL,5157.3340,N,00422.6889,E,050628.000,A,A*59
$GPGLL,5157.3293,N,00422.6892,E,050629.000,A,A*5D
$GPGLL,5157.3246,N,00422.6894,E,050630.000,A,A*5B
$GPGLL,5157.3198,N,00422.6896,E,050631.000,A,A*58
$GPGLL,5157.3150,N,00422.6900,E,050632.000,A,A*51
$GPGLL,5157.3102,N,00422.6903,E,050633.000,A,A*54
$GPGLL,5157.3055,N,00422.6908,E,050634.000,A,A*5B
$GPGLL,5157.3008,N,00422.6915,E,050635.000,A,A*5E
$GPGLL,5157.2961,N,00422.6921,E,050636.000,A,A*5D
$GPGLL,5157.2913,N,00422.6925,E,050637.000,A,A*5D
$GPGLL,5157.2866,N,00422.6928,E,050638.000,A,A*5C
$GPGLL,5157.2817,N,00422.6933,E,050639.000,A,A*51
$GPGLL,5157.2771,N,00422.6936,E,050640.000,A,A*55
$GPGLL,5157.2725,N,00422.6940,E,050641.000,A,A*54
$GPGLL,5157.2679,N,00422.6942,E,050642.000,A,A*5D
$GPGLL,5157.2635,N,00422.6943,E,050643.000,A,A*55
$GPGLL,5157.2587,N,00422.6946,E,050644.000,A,A*5D
$GPGLL,5157.2540,N,00422.6954,E,050645.000,A,A*54
$GPGLL,5157.2493,N,00422.6963,E,050646.000,A,A*5C
$GPGLL,5157.2448,N,00422.6970,E,050647.000,A,A*59
$GPGLL,5157.2405,N,00422.6981,E,050648.000,A,A*51
$GPGLL,5157.2362,N,00422.6998,E,050649.000,A,A*5E
$GPGLL,5157.2320,N,00422.7021,E,050650.000,A,A*5A
$GPGLL,5157.2279,N,00422.7043,E,050651.000,A,A*52
$GPGLL,5157.2237,N,00422.7064,E,050652.000,A,A*5E
$GPGLL,5157.2192,N,00422.7083,E,050653.000,A,A*5A
$GPGLL,5157.2146,N,00422.7100,E,050654.000,A,A*5E
$GPGLL,5157.2098,N,00422.7112,E,050655.000,A,A*5E
$GPGLL,5157.2051,N,00422.7122,E,050656.000,A,A*5B
$GPGLL,5157.2005,N,00422.7130,E,050657.000,A,A*58
$GPGLL,5157.1957,N,00422.7136,E,050658.000,A,A*5C
$GPGLL,5157.1911,N,00422.7140,E,050659.000,A,A*5E
$GPGLL,5157.1865,N,00422.7149,E,050700.000,A,A*58
$GPGLL,5157.1820,N,00422.7163,E,050701.000,A,A*50
$GPGLL,5157.1779,N,00422.7179,E,050702.000,A,A*5B
$GPGLL,5157.1753,N,00422.7206,E,050703.000,A,A*59
$GPGLL,5157.1745,N,00422.7248,E,050704.000,A,A*53
$GPGLL,5157.1750,N,00422.7294,E,050705.000,A,A*57
$GPGLL,5157.1769,N,00422.7336,E,050706.000,A,A*57
$GPGLL,5157.1790,N,00422.7380,E,050707.000,A,A*5D
$GPGLL,5157.1811,N,00422.7428,E,050708.000,A,A*51
$GPGLL,5157.1831,N,00422.7479,E,050709.000,A,A*56
$GPGLL,5157.1851,N,00422.7538,E,050710.000,A,A*5C
$GPGLL,5157.1872,N,00422.7593,E,050711.000,A,A*5D
$GPGLL,5157.1892,N,00422.7649,E,050712.000,A,A*54
$GPGLL,5157.1913,N,00422.7709,E,050713.000,A,A*58
$GPGLL,5157.1932,N,00422.7771,E,050714.000,A,A*53
$GPGLL,5157.1950,N,00422.7834,E,050715.000,A,A*58
$GPGLL,5157.1964,N,00422.7901,E,050716.000,A,A*5B
$GPGLL,5157.1974,N,00422.7971,E,050717.000,A,A*5C
$GPGLL,5157.1981,N,00422.8040,E,050718.000,A,A*5D
$GPGLL,5157.1990,N,00422.8106,E,050719.000,A,A*5F
$GPGLL,5157.2002,N,00422.8172,E,050720.000,A,A*57
$GPGLL,5157.2014,N,00422.8237,E,050721.000,A,A*53
$GPGLL,5157.2028,N,00422.8297,E,050722.000,A,A*55
$GPGLL,5157.2051,N,00422.8353,E,050723.000,A,A*53
$GPGLL,5157.2079,N,00422.8406,E,050724.000,A,A*59
$GPGLL,5157.2107,N,00422.8455,E,050725.000,A,A*56
$GPGLL,5157.2131,N,00422.8507,E,050726.000,A,A*56
$GPGLL,5157.2154,N,00422.8570,E,050727.000,A,A*54
$GPGLL,5157.2177,N,00422.8632,E,050728.000,A,A*5F
$GPGLL,5157.2199,N,00422.8698,E,050729.000,A,A*5E
$GPGLL,5157.2223,N,00422.8761,E,050730.000,A,A*53
$GPGLL,5157.2247,N,00422.8824,E,050731.000,A,A*5E
$GPGLL,5157.2270,N,00422.8888,E,050732.000,A,A*5F
$GPGLL,5157.2293,N,00422.8952,E,050733.000,A,A*55
$GPGLL,5157.2316,N,00422.9012,E,050734.000,A,A*52
$GPGLL,5157.2338,N,00422.9073,E,050735.000,A,A*58
$GPGLL,5157.2360,N,00422.9136,E,050736.000,A,A*56
$GPGLL,5157.2382,N,00422.9199,E,050737.000,A,A*5E
$GPGLL,5157.2405,N,00422.9259,E,050738.000,A,A*56
$GPGLL,5157.2427,N,00422.9318,E,050739.000,A,A*53
$GPGLL,5157.2451,N,00422.9378,E,050740.000,A,A*5A
$GPGLL,5157.2473,N,00422.9440,E,050741.000,A,A*57
$GPGLL,5157.2497,N,00422.9501,E,050742.000,A,A*5A
$GPGLL,5157.2516,N,00422.9563,E,050743.000,A,A*57
$GPGLL,5157.2531,N,00422.9630,E,050744.000,A,A*50
$GPGLL,5157.2539,N,00422.9700,E,050745.000,A,A*5B
$GPGLL,5157.2544,N,00422.9769,E,050746.000,A,A*5D
$GPGLL,5157.2548,N,00422.9841,E,050747.000,A,A*55
$GPGLL,5157.2551,N,00422.9913,E,050748.000,A,A*54
$GPGLL,5157.2555,N,00422.9984,E,050749.000,A,A*5F
$GPGLL,5157.2558,N,00423.0055,E,050750.000,A,A*57
$GPGLL,5157.2562,N,00423.0125,E,050751.000,A,A*59
$GPGLL,5157.2567,N,00423.0193,E,050752.000,A,A*52
$GPGLL,5157.2573,N,00423.0262,E,050753.000,A,A*5B
$GPGLL,5157.2582,N,00423.0329,E,050754.000,A,A*5C
$GPGLL,5157.2596,N,00423.0396,E,050755.000,A,A*5C
$GPGLL,5157.2611,N,00423.0468,E,050756.000,A,A*55
$GPGLL,5157.2628,N,00423.0545,E,050757.000,A,A*50
$GPGLL,5157.2646,N,00423.0628,E,050758.000,A,A*5F
$GPGLL,5157.2661,N,00423.0718,E,050759.000,A,A*59
$GPGLL,5157.2668,N,00423.0795,E,050800.000,A,A*56
$GPGLL,5157.2684,N,00423.0862,E,050801.000,A,A*52
$GPGLL,5157.2699,N,00423.0921,E,050802.000,A,A*5B
$GPGLL,5157.2715,N,00423.0982,E,050803.000,A,A*56
$GPGLL,5157.2729,N,00423.1045,E,050804.000,A,A*5D
$GPGLL,5157.2746,N,00423.1110,E,050805.000,A,A*54
$GPGLL,5157.2760,N,00423.1172,E,050806.000,A,A*57
$GPGLL,5157.2770,N,00423.1235,E,050807.000,A,A*57
$GPGLL,5157.2784,N,00423.1301,E,050808.000,A,A*55
$GPGLL,5157.2795,N,00423.1365,E,050809.000,A,A*56
$GPGLL,5157.2806,N,00423.1427,E,050810.000,A,A*5A
$GPGLL,5157.2815,N,00423.1489,E,050811.000,A,A*5D
$GPGLL,5157.2829,N,00423.1551,E,050812.000,A,A*55
$GPGLL,5157.2846,N,00423.1610,E,050813.000,A,A*5B
$GPGLL,5157.2864,N,00423.1671,E,050814.000,A,A*5B
$GPGLL,5157.2884,N,00423.1732,E,050815.000,A,A*52
$GPGLL,5157.2905,N,00423.1793,E,050816.000,A,A*52
$GPGLL,5157.2924,N,00423.1853,E,050817.000,A,A*53
$GPGLL,5157.2944,N,00423.1913,E,050818.000,A,A*5F
$GPGLL,5157.2964,N,00423.1972,E,050819.000,A,A*5B
$GPGLL,5157.2986,N,00423.2029,E,050820.000,A,A*59
$GPGLL,5157.3006,N,00423.2091,E,050821.000,A,A*5B
$GPGLL,5157.3027,N,00423.2154,E,050822.000,A,A*53
$GPGLL,5157.3050,N,00423.2214,E,050823.000,A,A*55
$GPGLL,5157.3071,N,00423.2274,E,050824.000,A,A*57
$GPGLL,5157.3091,N,00423.2337,E,050825.000,A,A*5E
$GPGLL,5157.3112,N,00423.2398,E,050826.000,A,A*52
$GPGLL,5157.3132,N,00423.2461,E,050827.000,A,A*50
$GPGLL,5157.3152,N,00423.2520,E,050828.000,A,A*5D
$GPGLL,5157.3173,N,00423.2581,E,050829.000,A,A*54
$GPGLL,5157.3194,N,00423.2643,E,050830.000,A,A*58
$GPGLL,5157.3215,N,00423.2705,E,050831.000,A,A*50
$GPGLL,5157.3234,N,00423.2767,E,050832.000,A,A*54
$GPGLL,5157.3253,N,00423.2828,E,050833.000,A,A*50
$GPGLL,5157.3273,N,00423.2888,E,050834.000,A,A*5F
$GPGLL,5157.3296,N,00423.2951,E,050835.000,A,A*50
$GPGLL,5157.3318,N,00423.3015,E,050836.000,A,A*5C
$GPGLL,5157.3338,N,00423.3080,E,050837.000,A,A*53
$GPGLL,5157.3359,N,00423.3142,E,050838.000,A,A*54
$GPGLL,5157.3379,N,00423.3205,E,050839.000,A,A*57
$GPGLL,5157.3397,N,00423.3262,E,050840.000,A,A*58
$GPGLL,5157.3415,N,00423.3323,E,050841.000,A,A*50
$GPGLL,5157.3434,N,00423.3382,E,050842.000,A,A*5B
$GPGLL,5157.3455,N,00423.3440,E,050843.000,A,A*54
$GPGLL,5157.3476,N,00423.3497,E,050844.000,A,A*58
$GPGLL,5157.3500,N,00423.3553,E,050845.000,A,A*50
$GPGLL,5157.3518,N,00423.3609,E,050846.000,A,A*56
$GPGLL,5157.3535,N,00423.3668,E,050847.000,A,A*5F
$GPGLL,5157.3557,N,00423.3724,E,050848.000,A,A*5D
$GPGLL,5157.3576,N,00423.3782,E,050849.000,A,A*53
$GPGLL,5157.3596,N,00423.3841,E,050850.000,A,A*55
$GPGLL,5157.3616,N,00423.3901,E,050851.000,A,A*5A
$GPGLL,5157.3638,N,00423.3961,E,050852.000,A,A*53
$GPGLL,5157.3658,N,00423.4019,E,050853.000,A,A*55
$GPGLL,5157.3678,N,00423.4079,E,050854.000,A,A*56
$GPGLL,5157.3699,N,00423.4139,E,050855.000,A,A*5D
$GPGLL,5157.3721,N,00423.4201,E,050856.000,A,A*54
$GPGLL,5157.3740,N,00423.4261,E,050857.000,A,A*54
$GPGLL,5157.3761,N,00423.4320,E,050858.000,A,A*5C
$GPGLL,5157.3781,N,00423.4379,E,050859.000,A,A*5F
$GPGLL,5157.3801,N,00423.4436,E,050900.000,A,A*59
$GPGLL,5157.3823,N,00423.4495,E,050901.000,A,A*51
$GPGLL,5157.3843,N,00423.4553,E,050902.000,A,A*5F
$GPGLL,5157.3862,N,00423.4612,E,050903.000,A,A*5B
$GPGLL,5157.3884,N,00423.4670,E,050904.000,A,A*50
$GPGLL,5157.3905,N,00423.4729,E,050905.000,A,A*54
$GPGLL,5157.3924,N,00423.4788,E,050906.000,A,A*5F
$GPGLL,5157.3944,N,00423.4849,E,050907.000,A,A*5A
$GPGLL,5157.3964,N,00423.4907,E,050908.000,A,A*5C
$GPGLL,5157.3982,N,00423.4966,E,050909.000,A,A*52
$GPGLL,5157.4001,N,00423.5026,E,050910.000,A,A*53
$GPGLL,5157.4021,N,00423.5087,E,050911.000,A,A*5B
$GPGLL,5157.4044,N,00423.5147,E,050912.000,A,A*56
$GPGLL,5157.4067,N,00423.5206,E,050913.000,A,A*50
$GPGLL,5157.4090,N,00423.5265,E,050914.000,A,A*5A
$GPGLL,5157.4112,N,00423.5323,E,050915.000,A,A*53
$GPGLL,5157.4134,N,00423.5382,E,050916.000,A,A*5F
$GPGLL,5157.4156,N,00423.5440,E,050917.000,A,A*53
$GPGLL,5157.4177,N,00423.5499,E,050918.000,A,A*5B
$GPGLL,5157.4199,N,00423.5559,E,050919.000,A,A*57
$GPGLL,5157.4220,N,00423.5620,E,050920.000,A,A*51
$GPGLL,5157.4242,N,00423.5679,E,050921.000,A,A*58
$GPGLL,5157.4264,N,00423.5736,E,050922.000,A,A*55
$GPGLL,5157.4286,N,00423.5794,E,050923.000,A,A*50
$GPGLL,5157.4308,N,00423.5853,E,050924.000,A,A*54
$GPGLL,5157.4331,N,00423.5913,E,050925.000,A,A*5A
$GPGLL,5157.4352,N,00423.5974,E,050926.000,A,A*5D
$GPGLL,5157.4373,N,00423.6032,E,050927.000,A,A*57
$GPGLL,5157.4394,N,00423.6095,E,050928.000,A,A*5C
$GPGLL,5157.4415,N,00423.6156,E,050929.000,A,A*5D
$GPGLL,5157.4437,N,00423.6217,E,050930.000,A,A*53
$GPGLL,5157.4459,N,00423.6278,E,050931.000,A,A*53
$GPGLL,5157.4479,N,00423.6337,E,050932.000,A,A*58
$GPGLL,5157.4500,N,00423.6398,E,050933.000,A,A*53
$GPGLL,5157.4520,N,00423.6459,E,050934.000,A,A*5C
$GPGLL,5157.4539,N,00423.6519,E,050935.000,A,A*50
$GPGLL,5157.4560,N,00423.6576,E,050936.000,A,A*56
$GPGLL,5157.4581,N,00423.6636,E,050937.000,A,A*5F
$GPGLL,5157.4601,N,00423.6694,E,050938.000,A,A*53
$GPGLL,5157.4622,N,00423.6753,E,050939.000,A,A*59
$GPGLL,5157.4642,N,00423.6810,E,050940.000,A,A*59
$GPGLL,5157.4663,N,00423.6865,E,050941.000,A,A*59
$GPGLL,5157.4676,N,00423.6922,E,050942.000,A,A*5C
$GPGLL,5157.4671,N,00423.6987,E,050943.000,A,A*55
$GPGLL,5157.4650,N,00423.7046,E,050944.000,A,A*54
$GPGLL,5157.4618,N,00423.7091,E,050945.000,A,A*53
$GPGLL,5157.4579,N,00423.7124,E,050946.000,A,A*5B
$GPGLL,5157.4538,N,00423.7154,E,050947.000,A,A*58
$GPGLL,5157.4499,N,00423.7179,E,050948.000,A,A*52
$GPGLL,5157.4461,N,00423.7209,E,050949.000,A,A*50
$GPGLL,5157.4420,N,00423.7243,E,050950.000,A,A*53
$GPGLL,5157.4382,N,00423.7275,E,050951.000,A,A*58
$GPGLL,5157.4342,N,00423.7306,E,050952.000,A,A*52
$GPGLL,5157.4303,N,00423.7337,E,050953.000,A,A*54
$GPGLL,5157.4265,N,00423.7368,E,050954.000,A,A*58
$GPGLL,5157.4226,N,00423.7398,E,050955.000,A,A*51
$GPGLL,5157.4186,N,00423.7431,E,050956.000,A,A*5F
$GPGLL,5157.4146,N,00423.7464,E,050957.000,A,A*52
$GPGLL,5157.4106,N,00423.7495,E,050958.000,A,A*57
$GPGLL,5157.4066,N,00423.7526,E,050959.000,A,A*58
$GPGLL,5157.4026,N,00423.7559,E,051000.000,A,A*50
$GPGLL,5157.3988,N,00423.7596,E,051001.000,A,A*58
$GPGLL,5157.3949,N,00423.7634,E,051002.000,A,A*5D
$GPGLL,5157.3913,N,00423.7675,E,051003.000,A,A*56
$GPGLL,5157.3877,N,00423.7718,E,051004.000,A,A*58
$GPGLL,5157.3843,N,00423.7760,E,051005.000,A,A*51
$GPGLL,5157.3809,N,00423.7802,E,051006.000,A,A*57
$GPGLL,5157.3772,N,00423.7838,E,051007.000,A,A*5C
$GPGLL,5157.3734,N,00423.7872,E,051008.000,A,A*5F
$GPGLL,5157.3695,N,00423.7906,E,051009.000,A,A*56
$GPGLL,5157.3658,N,00423.7941,E,051010.000,A,A*5C
$GPGLL,5157.3619,N,00423.7975,E,051011.000,A,A*5F
$GPGLL,5157.3584,N,00423.8011,E,051012.000,A,A*5F
$GPGLL,5157.3555,N,00423.8061,E,051013.000,A,A*55
$GPGLL,5157.3531,N,00423.8116,E,051014.000,A,A*51
$GPGLL,5157.3515,N,00423.8168,E,051015.000,A,A*5F
$GPGLL,5157.3506,N,00423.8214,E,051016.000,A,A*56
$GPGLL,5157.3499,N,00423.8257,E,051017.000,A,A*57
$GPGLL,5157.3499,N,00423.8304,E,051018.000,A,A*5F
$GPGLL,5157.3500,N,00423.8360,E,051019.000,A,A*5D
$GPGLL,5157.3511,N,00423.8424,E,051020.000,A,A*50
$GPGLL,5157.3537,N,00423.8475,E,051021.000,A,A*51
$GPGLL,5157.3566,N,00423.8515,E,051022.000,A,A*51
$GPGLL,5157.3586,N,00423.8569,E,051023.000,A,A*55
$GPGLL,5157.3578,N,00423.8628,E,051024.000,A,A*55
$GPGLL,5157.3558,N,00423.8685,E,051025.000,A,A*51
$GPGLL,5157.3533,N,00423.8722,E,051026.000,A,A*53
$GPGLL,5157.3501,N,00423.8749,E,051027.000,A,A*5E
$GPGLL,5157.3471,N,00423.8780,E,051028.000,A,A*52
$GPGLL,5157.3445,N,00423.8828,E,051029.000,A,A*59
$GPGLL,5157.3428,N,00423.8881,E,051030.000,A,A*59
$GPGLL,5157.3430,N,00423.8935,E,051031.000,A,A*5F
$GPGLL,5157.3441,N,00423.8986,E,051032.000,A,A*52
$GPGLL,5157.3459,N,00423.9036,E,051033.000,A,A*59
$GPGLL,5157.3479,N,00423.9083,E,051034.000,A,A*52
$GPGLL,5157.3499,N,00423.9137,E,051035.000,A,A*53
$GPGLL,5157.3521,N,00423.9191,E,051036.000,A,A*5E
$GPGLL,5157.3544,N,00423.9245,E,051037.000,A,A*56
$GPGLL,5157.3564,N,00423.9305,E,051038.000,A,A*5E
$GPGLL,5157.3578,N,00423.9365,E,051039.000,A,A*54
$GPGLL,5157.3574,N,00423.9430,E,051040.000,A,A*51
$GPGLL,5157.3551,N,00423.9492,E,051041.000,A,A*5F
$GPGLL,5157.3521,N,00423.9542,E,051042.000,A,A*57
$GPGLL,5157.3492,N,00423.9589,E,051043.000,A,A*58
$GPGLL,5157.3460,N,00423.9632,E,051044.000,A,A*51
$GPGLL,5157.3429,N,00423.9677,E,051045.000,A,A*5C
$GPGLL,5157.3401,N,00423.9728,E,051046.000,A,A*5E
$GPGLL,5157.3381,N,00423.9785,E,051047.000,A,A*57
$GPGLL,5157.3369,N,00423.9842,E,051048.000,A,A*5A
$GPGLL,5157.3361,N,00423.9894,E,051049.000,A,A*58
$GPGLL,5157.3345,N,00423.9942,E,051050.000,A,A*5C
$GPGLL,5157.3321,N,00423.9982,E,051051.000,A,A*53
$GPGLL,5157.3294,N,00424.0022,E,051052.000,A,A*52
$GPGLL,5157.3265,N,00424.0065,E,051053.000,A,A*5E
$GPGLL,5157.3240,N,00424.0111,E,051054.000,A,A*5C
$GPGLL,5157.3213,N,00424.0159,E,051055.000,A,A*57
$GPGLL,5157.3186,N,00424.0204,E,051056.000,A,A*50
$GPGLL,5157.3159,N,00424.0251,E,051057.000,A,A*53
$GPGLL,5157.3134,N,00424.0303,E,051058.000,A,A*51
$GPGLL,5157.3107,N,00424.0353,E,051059.000,A,A*55
$GPGLL,5157.3079,N,00424.0402,E,051100.000,A,A*53
$GPGLL,5157.3052,N,00424.0451,E,051101.000,A,A*5D
$GPGLL,5157.3021,N,00424.0500,E,051102.000,A,A*5F
$GPGLL,5157.2990,N,00424.0551,E,051103.000,A,A*58
$GPGLL,5157.2960,N,00424.0604,E,051104.000,A,A*53
$GPGLL,5157.2929,N,00424.0656,E,051105.000,A,A*58
$GPGLL,5157.2899,N,00424.0709,E,051106.000,A,A*5A
$GPGLL,5157.2869,N,00424.0760,E,051107.000,A,A*5B
$GPGLL,5157.2838,N,00424.0815,E,051108.000,A,A*5D
$GPGLL,5157.2807,N,00424.0868,E,051109.000,A,A*5A
$GPGLL,5157.2776,N,00424.0923,E,051110.000,A,A*55
$GPGLL,5157.2745,N,00424.0979,E,051111.000,A,A*5B
$GPGLL,5157.2712,N,00424.1035,E,051112.000,A,A*5A
$GPGLL,5157.2679,N,00424.1090,E,051113.000,A,A*58
$GPGLL,5157.2648,N,00424.1144,E,051114.000,A,A*55
$GPGLL,5157.2616,N,00424.1201,E,051115.000,A,A*5D
$GPGLL,5157.2583,N,00424.1257,E,051116.000,A,A*52
$GPGLL,5157.2551,N,00424.1315,E,051117.000,A,A*5B
$GPGLL,5157.2518,N,00424.1374,E,051118.000,A,A*5E
$GPGLL,5157.2485,N,00424.1427,E,051119.000,A,A*5B
$GPGLL,5157.2454,N,00424.1481,E,051120.000,A,A*51
$GPGLL,5157.2421,N,00424.1536,E,051121.000,A,A*5F
$GPGLL,5157.2389,N,00424.1591,E,051122.000,A,A*54
$GPGLL,5157.2355,N,00424.1646,E,051123.000,A,A*5D
$GPGLL,5157.2321,N,00424.1697,E,051124.000,A,A*55
$GPGLL,5157.2288,N,00424.1753,E,051125.000,A,A*5F
$GPGLL,5157.2255,N,00424.1806,E,051126.000,A,A*53
$GPGLL,5157.2221,N,00424.1861,E,051127.000,A,A*50
$GPGLL,5157.2188,N,00424.1917,E,051128.000,A,A*5F
$GPGLL,5157.2155,N,00424.1974,E,051129.000,A,A*5B
$GPGLL,5157.2122,N,00424.2026,E,051130.000,A,A*5E
$GPGLL,5157.2089,N,00424.2079,E,051131.000,A,A*55
$GPGLL,5157.2056,N,00424.2133,E,051132.000,A,A*5B
$GPGLL,5157.2024,N,00424.2189,E,051133.000,A,A*5E
$GPGLL,5157.1993,N,00424.2242,E,051134.000,A,A*5B
$GPGLL,5157.1961,N,00424.2295,E,051135.000,A,A*5D
$GPGLL,5157.1928,N,00424.2350,E,051136.000,A,A*5B
$GPGLL,5157.1896,N,00424.2402,E,051137.000,A,A*5E
$GPGLL,5157.1864,N,00424.2453,E,051138.000,A,A*58
$GPGLL,5157.1831,N,00424.2506,E,051139.000,A,A*58
$GPGLL,5157.1800,N,00424.2557,E,051140.000,A,A*50
$GPGLL,5157.1767,N,00424.2610,E,051141.000,A,A*5F
$GPGLL,5157.1733,N,00424.2663,E,051142.000,A,A*59
$GPGLL,5157.1700,N,00424.2712,E,051143.000,A,A*5F
$GPGLL,5157.1667,N,00424.2769,E,051144.000,A,A*54
$GPGLL,5157.1635,N,00424.2820,E,051145.000,A,A*50
$GPGLL,5157.1601,N,00424.2871,E,051146.000,A,A*50
$GPGLL,5157.1569,N,00424.2923,E,051147.000,A,A*5A
$GPGLL,5157.1537,N,00424.2975,E,051148.000,A,A*5D
$GPGLL,5157.1504,N,00424.3027,E,051149.000,A,A*53
$GPGLL,5157.1472,N,00424.3077,E,051150.000,A,A*5E
$GPGLL,5157.1440,N,00424.3131,E,051151.000,A,A*5D
$GPGLL,5157.1408,N,00424.3184,E,051152.000,A,A*5C
$GPGLL,5157.1375,N,00424.3237,E,051153.000,A,A*5B
$GPGLL,5157.1343,N,00424.3289,E,051154.000,A,A*5C
$GPGLL,5157.1309,N,00424.3343,E,051155.000,A,A*54
$GPGLL,5157.1277,N,00424.3396,E,051156.000,A,A*57
$GPGLL,5157.1245,N,00424.3448,E,051157.000,A,A*53
$GPGLL,5157.1214,N,00424.3499,E,051158.000,A,A*54
$GPGLL,5157.1181,N,00424.3549,E,051159.000,A,A*56
$GPGLL,5157.1149,N,00424.3601,E,051200.000,A,A*52
$GPGLL,5157.1118,N,00424.3657,E,051201.000,A,A*54
$GPGLL,5157.1086,N,00424.3712,E,051202.000,A,A*51
$GPGLL,5157.1053,N,00424.3763,E,051203.000,A,A*5E
$GPGLL,5157.1021,N,00424.3813,E,051204.000,A,A*54
$GPGLL,5157.0989,N,00424.3865,E,051205.000,A,A*5E
$GPGLL,5157.0957,N,00424.3920,E,051206.000,A,A*5E
$GPGLL,5157.0924,N,00424.3973,E,051207.000,A,A*5D
$GPGLL,5157.0893,N,00424.4027,E,051208.000,A,A*50
$GPGLL,5157.0861,N,00424.4081,E,051209.000,A,A*50
$GPGLL,5157.0829,N,00424.4135,E,051210.000,A,A*5A
$GPGLL,5157.0798,N,00424.4190,E,051211.000,A,A*51
$GPGLL,5157.0766,N,00424.4244,E,051212.000,A,A*59
$GPGLL,5157.0734,N,00424.4302,E,051213.000,A,A*5C
$GPGLL,5157.0702,N,00424.4358,E,051214.000,A,A*51
$GPGLL,5157.0670,N,00424.4414,E,051215.000,A,A*5B
$GPGLL,5157.0638,N,00424.4471,E,051216.000,A,A*57
$GPGLL,5157.0605,N,00424.4526,E,051217.000,A,A*5B
$GPGLL,5157.0572,N,00424.4581,E,051218.000,A,A*5A
$GPGLL,5157.0540,N,00424.4636,E,051219.000,A,A*55
$GPGLL,5157.0507,N,00424.4691,E,051220.000,A,A*51
$GPGLL,5157.0474,N,00424.4747,E,051221.000,A,A*5F
$GPGLL,5157.0442,N,00424.4801,E,051222.000,A,A*54
$GPGLL,5157.0410,N,00424.4855,E,051223.000,A,A*53
$GPGLL,5157.0378,N,00424.4910,E,051224.000,A,A*5D
$GPGLL,5157.0345,N,00424.4965,E,051225.000,A,A*50
$GPGLL,5157.0315,N,00424.5018,E,051226.000,A,A*54
$GPGLL,5157.0284,N,00424.5072,E,051227.000,A,A*50
$GPGLL,5157.0252,N,00424.5127,E,051228.000,A,A*55
$GPGLL,5157.0222,N,00424.5180,E,051229.000,A,A*5E
$GPGLL,5157.0191,N,00424.5237,E,051230.000,A,A*52
$GPGLL,5157.0158,N,00424.5293,E,051231.000,A,A*58
$GPGLL,5157.0125,N,00424.5349,E,051232.000,A,A*57
$GPGLL,5157.0094,N,00424.5405,E,051233.000,A,A*52
$GPGLL,5157.0064,N,00424.5460,E,051234.000,A,A*59
$GPGLL,5157.0030,N,00424.5514,E,051235.000,A,A*5B
$GPGLL,5156.9993,N,00424.5558,E,051236.000,A,A*58
$GPGLL,5156.9950,N,00424.5580,E,051237.000,A,A*53
$GPGLL,5156.9903,N,00424.5581,E,051238.000,A,A*5B
$GPGLL,5156.9855,N,00424.5578,E,051239.000,A,A*5E
$GPGLL,5156.9808,N,00424.5578,E,051240.000,A,A*58
$GPGLL,5156.9765,N,00424.5593,E,051241.000,A,A*58
$GPGLL,5156.9724,N,00424.5620,E,051242.000,A,A*55
$GPGLL,5156.9685,N,00424.5664,E,051243.000,A,A*5E
$GPGLL,5156.9651,N,00424.5718,E,051244.000,A,A*5A
$GPGLL,5156.9618,N,00424.5775,E,051245.000,A,A*5D
$GPGLL,5156.9586,N,00424.5829,E,051246.000,A,A*5C
$GPGLL,5156.9554,N,00424.5881,E,051247.000,A,A*50
$GPGLL,5156.9521,N,00424.5936,E,051248.000,A,A*50
$GPGLL,5156.9490,N,00424.5991,E,051249.000,A,A*57
$GPGLL,5156.9459,N,00424.6047,E,051250.000,A,A*5B
$GPGLL,5156.9427,N,00424.6102,E,051251.000,A,A*53
$GPGLL,5156.9394,N,00424.6156,E,051252.000,A,A*5E
$GPGLL,5156.9363,N,00424.6212,E,051253.000,A,A*54
$GPGLL,5156.9331,N,00424.6265,E,051254.000,A,A*54
$GPGLL,5156.9299,N,00424.6319,E,051255.000,A,A*5C
$GPGLL,5156.9268,N,00424.6373,E,051256.000,A,A*5D
$GPGLL,5156.9237,N,00424.6426,E,051257.000,A,A*51
$GPGLL,5156.9207,N,00424.6480,E,051258.000,A,A*51
$GPGLL,5156.9176,N,00424.6534,E,051259.000,A,A*5B
$GPGLL,5156.9145,N,00424.6589,E,051300.000,A,A*50
$GPGLL,5156.9115,N,00424.6649,E,051301.000,A,A*5B
$GPGLL,5156.9087,N,00424.6705,E,051302.000,A,A*5B
$GPGLL,5156.9058,N,00424.6762,E,051303.000,A,A*59
$GPGLL,5156.9029,N,00424.6818,E,051304.000,A,A*5A
$GPGLL,5156.8998,N,00424.6872,E,051305.000,A,A*55
$GPGLL,5156.8967,N,00424.6920,E,051306.000,A,A*50
$GPGLL,5156.8939,N,00424.6969,E,051307.000,A,A*57
$GPGLL,5156.8911,N,00424.7020,E,051308.000,A,A*57
$GPGLL,5156.8883,N,00424.7076,E,051309.000,A,A*5F
$GPGLL,5156.8866,N,00424.7138,E,051310.000,A,A*57
$GPGLL,5156.8854,N,00424.7197,E,051311.000,A,A*52
$GPGLL,5156.8837,N,00424.7246,E,051312.000,A,A*5B
$GPGLL,5156.8809,N,00424.7255,E,051313.000,A,A*55
$GPGLL,5156.8789,N,00424.7233,E,051314.000,A,A*55
$GPGLL,5156.8779,N,00424.7173,E,051315.000,A,A*5C
$GPGLL,5156.8770,N,00424.7120,E,051316.000,A,A*50
$GPGLL,5156.8755,N,00424.7070,E,051317.000,A,A*52
$GPGLL,5156.8735,N,00424.7022,E,051318.000,A,A*5C
$GPGLL,5156.8717,N,00424.6972,E,051319.000,A,A*50
$GPGLL,5156.8698,N,00424.6922,E,051320.000,A,A*59
$GPGLL,5156.8679,N,00424.6871,E,051321.000,A,A*50
$GPGLL,5156.8661,N,00424.6820,E,051322.000,A,A*5E
$GPGLL,5156.8641,N,00424.6765,E,051323.000,A,A*53
$GPGLL,5156.8621,N,00424.6709,E,051324.000,A,A*58
$GPGLL,5156.8601,N,00424.6654,E,051325.000,A,A*52
$GPGLL,5156.8581,N,00424.6597,E,051326.000,A,A*56
$GPGLL,5156.8560,N,00424.6540,E,051327.000,A,A*52
$GPGLL,5156.8538,N,00424.6484,E,051328.000,A,A*59
$GPGLL,5156.8516,N,00424.6428,E,051329.000,A,A*52
$GPGLL,5156.8494,N,00424.6369,E,051330.000,A,A*53
$GPGLL,5156.8472,N,00424.6308,E,051331.000,A,A*5D
$GPGLL,5156.8450,N,00424.6247,E,051332.000,A,A*54
$GPGLL,5156.8426,N,00424.6186,E,051333.000,A,A*5A
$GPGLL,5156.8404,N,00424.6124,E,051334.000,A,A*55
$GPGLL,5156.8382,N,00424.6063,E,051335.000,A,A*5F
$GPGLL,5156.8360,N,00424.6004,E,051336.000,A,A*51
$GPGLL,5156.8337,N,00424.5943,E,051337.000,A,A*5B
$GPGLL,5156.8315,N,00424.5880,E,051338.000,A,A*5A
$GPGLL,5156.8293,N,00424.5820,E,051339.000,A,A*5E
$GPGLL,5156.8270,N,00424.5758,E,051340.000,A,A*5D
$GPGLL,5156.8248,N,00424.5698,E,051341.000,A,A*5A
$GPGLL,5156.8222,N,00424.5640,E,051342.000,A,A*50
$GPGLL,5156.8194,N,00424.5583,E,051343.000,A,A*53
$GPGLL,5156.8170,N,00424.5528,E,051344.000,A,A*5F
$GPGLL,5156.8149,N,00424.5472,E,051345.000,A,A*5A
$GPGLL,5156.8136,N,00424.5424,E,051346.000,A,A*52
$GPGLL,5156.8130,N,00424.5392,E,051347.000,A,A*5F
$GPGLL,5156.8138,N,00424.5378,E,051348.000,A,A*5C
$GPGLL,5156.8154,N,00424.5381,E,051349.000,A,A*51
$GPGLL,5156.8166,N,00424.5392,E,051350.000,A,A*5A
$GPGLL,5156.8179,N,00424.5410,E,051351.000,A,A*58
$GPGLL,5156.8195,N,00424.5430,E,051352.000,A,A*5B
$GPGLL,5156.8210,N,00424.5454,E,051353.000,A,A*56
$GPGLL,5156.8230,N,00424.5480,E,051354.000,A,A*5A
$GPGLL,5156.8253,N,00424.5518,E,051355.000,A,A*5E
$GPGLL,5156.8271,N,00424.5559,E,051356.000,A,A*58
$GPGLL,5156.8288,N,00424.5603,E,051357.000,A,A*53
$GPGLL,5156.8309,N,00424.5652,E,051358.000,A,A*50
$GPGLL,5156.8328,N,00424.5704,E,051359.000,A,A*50
$GPGLL,5156.8347,N,00424.5754,E,051400.000,A,A*57
$GPGLL,5156.8367,N,00424.5809,E,051401.000,A,A*53
$GPGLL,5156.8387,N,00424.5861,E,051402.000,A,A*50
$GPGLL,5156.8409,N,00424.5911,E,051403.000,A,A*56
$GPGLL,5156.8432,N,00424.5964,E,051404.000,A,A*5B
$GPGLL,5156.8452,N,00424.6014,E,051405.000,A,A*51
$GPGLL,5156.8471,N,00424.6063,E,051406.000,A,A*53
$GPGLL,5156.8492,N,00424.6112,E,051407.000,A,A*58
$GPGLL,5156.8512,N,00424.6160,E,051408.000,A,A*5B
$GPGLL,5156.8531,N,00424.6209,E,051409.000,A,A*57
$GPGLL,5156.8551,N,00424.6255,E,051410.000,A,A*50
$GPGLL,5156.8570,N,00424.6304,E,051411.000,A,A*57
$GPGLL,5156.8591,N,00424.6353,E,051412.000,A,A*59
$GPGLL,5156.8611,N,00424.6403,E,051413.000,A,A*51
$GPGLL,5156.8632,N,00424.6453,E,051414.000,A,A*52
$GPGLL,5156.8650,N,00424.6501,E,051415.000,A,A*51
$GPGLL,5156.8671,N,00424.6547,E,051416.000,A,A*53
$GPGLL,5156.8691,N,00424.6596,E,051417.000,A,A*50
$GPGLL,5156.8710,N,00424.6644,E,051418.000,A,A*5B
$GPGLL,5156.8732,N,00424.6691,E,051419.000,A,A*52
$GPGLL,5156.8751,N,00424.6737,E,051420.000,A,A*50
$GPGLL,5156.8769,N,00424.6784,E,051421.000,A,A*52
$GPGLL,5156.8788,N,00424.6830,E,051422.000,A,A*5E
$GPGLL,5156.8806,N,00424.6879,E,051423.000,A,A*5B
$GPGLL,5156.8826,N,00424.6925,E,051424.000,A,A*56
$GPGLL,5156.8845,N,00424.6970,E,051425.000,A,A*52
$GPGLL,5156.8866,N,00424.7018,E,051426.000,A,A*56
$GPGLL,5156.8885,N,00424.7066,E,051427.000,A,A*53
$GPGLL,5156.8905,N,00424.7114,E,051428.000,A,A*51
$GPGLL,5156.8924,N,00424.7162,E,051429.000,A,A*52
$GPGLL,5156.8943,N,00424.7213,E,051430.000,A,A*5E
$GPGLL,5156.8964,N,00424.7265,E,051431.000,A,A*5B
$GPGLL,5156.8985,N,00424.7317,E,051432.000,A,A*53
$GPGLL,5156.9003,N,00424.7367,E,051433.000,A,A*53
$GPGLL,5156.9025,N,00424.7419,E,051434.000,A,A*5E
$GPGLL,5156.9050,N,00424.7470,E,051435.000,A,A*52
$GPGLL,5156.9073,N,00424.7522,E,051436.000,A,A*56
$GPGLL,5156.9095,N,00424.7572,E,051437.000,A,A*5A
$GPGLL,5156.9114,N,00424.7623,E,051438.000,A,A*5A
$GPGLL,5156.9134,N,00424.7676,E,051439.000,A,A*59
$GPGLL,5156.9155,N,00424.7729,E,051440.000,A,A*5B
$GPGLL,5156.9176,N,00424.7784,E,051441.000,A,A*5C
$GPGLL,5156.9198,N,00424.7840,E,051442.000,A,A*58
$GPGLL,5156.9218,N,00424.7895,E,051443.000,A,A*5A
$GPGLL,5156.9239,N,00424.7951,E,051444.000,A,A*57
$GPGLL,5156.9260,N,00424.8010,E,051445.000,A,A*59
$GPGLL,5156.9276,N,00424.8071,E,051446.000,A,A*5A
$GPGLL,5156.9287,N,00424.8140,E,051447.000,A,A*56
$GPGLL,5156.9302,N,00424.8208,E,051448.000,A,A*5A
$GPGLL,5156.9323,N,00424.8274,E,051449.000,A,A*53
$GPGLL,5156.9346,N,00424.8339,E,051450.000,A,A*50
$GPGLL,5156.9375,N,00424.8399,E,051451.000,A,A*5B
$GPGLL,5156.9403,N,00424.8463,E,051452.000,A,A*5C
$GPGLL,5156.9433,N,00424.8525,E,051453.000,A,A*5D
$GPGLL,5156.9460,N,00424.8589,E,051454.000,A,A*5A
$GPGLL,5156.9486,N,00424.8652,E,051455.000,A,A*56
$GPGLL,5156.9510,N,00424.8717,E,051456.000,A,A*5B
$GPGLL,5156.9536,N,00424.8781,E,051457.000,A,A*51
$GPGLL,5156.9561,N,00424.8845,E,051458.000,A,A*5B
$GPGLL,5156.9587,N,00424.8910,E,051459.000,A,A*53
$GPGLL,5156.9611,N,00424.8977,E,051500.000,A,A*53
$GPGLL,5156.9636,N,00424.9042,E,051501.000,A,A*59
$GPGLL,5156.9662,N,00424.9103,E,051502.000,A,A*5F
$GPGLL,5156.9686,N,00424.9166,E,051503.000,A,A*57
$GPGLL,5156.9711,N,00424.9231,E,051504.000,A,A*5E
$GPGLL,5156.9737,N,00424.9290,E,051505.000,A,A*50
$GPGLL,5156.9759,N,00424.9352,E,051506.000,A,A*54
$GPGLL,5156.9782,N,00424.9409,E,051507.000,A,A*5A
$GPGLL,5156.9806,N,00424.9467,E,051508.000,A,A*5E
$GPGLL,5156.9828,N,00424.9526,E,051509.000,A,A*57
$GPGLL,5156.9851,N,00424.9585,E,051510.000,A,A*58
$GPGLL,5156.9875,N,00424.9644,E,051511.000,A,A*51
$GPGLL,5156.9899,N,00424.9702,E,051512.000,A,A*53
$GPGLL,5156.9924,N,00424.9760,E,051513.000,A,A*51
$GPGLL,5156.9950,N,00424.9813,E,051514.000,A,A*5E
$GPGLL,5156.9974,N,00424.9865,E,051515.000,A,A*58
$GPGLL,5156.9998,N,00424.9920,E,051516.000,A,A*59
$GPGLL,5157.0024,N,00424.9975,E,051517.000,A,A*5E
$GPGLL,5157.0049,N,00425.0027,E,051518.000,A,A*5C
$GPGLL,5157.0072,N,00425.0080,E,051519.000,A,A*58
$GPGLL,5157.0095,N,00425.0132,E,051520.000,A,A*53
$GPGLL,5157.0119,N,00425.0184,E,051521.000,A,A*5A
$GPGLL,5157.0143,N,00425.0233,E,051522.000,A,A*59
$GPGLL,5157.0165,N,00425.0281,E,051523.000,A,A*55
$GPGLL,5157.0186,N,00425.0331,E,051524.000,A,A*55
$GPGLL,5157.0205,N,00425.0384,E,051525.000,A,A*52
$GPGLL,5157.0224,N,00425.0435,E,051526.000,A,A*5F
$GPGLL,5157.0242,N,00425.0484,E,051527.000,A,A*54
$GPGLL,5157.0262,N,00425.0534,E,051528.000,A,A*53
$GPGLL,5157.0284,N,00425.0587,E,051529.000,A,A*52
$GPGLL,5157.0308,N,00425.0643,E,051530.000,A,A*54
$GPGLL,5157.0333,N,00425.0698,E,051531.000,A,A*5B
$GPGLL,5157.0357,N,00425.0754,E,051532.000,A,A*5B
$GPGLL,5157.0381,N,00425.0812,E,051533.000,A,A*5C
$GPGLL,5157.0407,N,00425.0867,E,051534.000,A,A*50
$GPGLL,5157.0432,N,00425.0925,E,051535.000,A,A*50
$GPGLL,5157.0457,N,00425.0983,E,051536.000,A,A*5C
$GPGLL,5157.0483,N,00425.1040,E,051537.000,A,A*53
$GPGLL,5157.0510,N,00425.1096,E,051538.000,A,A*5C
$GPGLL,5157.0536,N,00425.1155,E,051539.000,A,A*57
$GPGLL,5157.0562,N,00425.1213,E,051540.000,A,A*59
$GPGLL,5157.0588,N,00425.1270,E,051541.000,A,A*59
$GPGLL,5157.0613,N,00425.1327,E,051542.000,A,A*58
$GPGLL,5157.0643,N,00425.1388,E,051543.000,A,A*59
$GPGLL,5157.0669,N,00425.1449,E,051544.000,A,A*5C
$GPGLL,5157.0696,N,00425.1512,E,051545.000,A,A*52
$GPGLL,5157.0720,N,00425.1577,E,051546.000,A,A*5E
$GPGLL,5157.0747,N,00425.1642,E,051547.000,A,A*5B
$GPGLL,5157.0773,N,00425.1708,E,051548.000,A,A*5C
$GPGLL,5157.0798,N,00425.1774,E,051549.000,A,A*53
$GPGLL,5157.0822,N,00425.1841,E,051550.000,A,A*5C
$GPGLL,5157.0845,N,00425.1908,E,051551.000,A,A*50
$GPGLL,5157.0867,N,00425.1975,E,051552.000,A,A*59
$GPGLL,5157.0889,N,00425.2042,E,051553.000,A,A*56
$GPGLL,5157.0912,N,00425.2110,E,051554.000,A,A*54
$GPGLL,5157.0937,N,00425.2176,E,051555.000,A,A*52
$GPGLL,5157.0962,N,00425.2240,E,051556.000,A,A*57
$GPGLL,5157.0987,N,00425.2305,E,051557.000,A,A*5D
$GPGLL,5157.1015,N,00425.2370,E,051558.000,A,A*53
$GPGLL,5157.1043,N,00425.2433,E,051559.000,A,A*51
$GPGLL,5157.1068,N,00425.2496,E,051600.000,A,A*58
$GPGLL,5157.1094,N,00425.2558,E,051601.000,A,A*59
$GPGLL,5157.1119,N,00425.2617,E,051602.000,A,A*56
$GPGLL,5157.1143,N,00425.2679,E,051603.000,A,A*50
$GPGLL,5157.1166,N,00425.2737,E,051604.000,A,A*5B
$GPGLL,5157.1190,N,00425.2798,E,051605.000,A,A*56
$GPGLL,5157.1210,N,00425.2859,E,051606.000,A,A*5C
$GPGLL,5157.1225,N,00425.2918,E,051607.000,A,A*5F
$GPGLL,5157.1234,N,00425.2973,E,051608.000,A,A*5D
$GPGLL,5157.1236,N,00425.3017,E,051609.000,A,A*54
$GPGLL,5157.1240,N,00425.3044,E,051610.000,A,A*5B
$GPGLL,5157.1244,N,00425.3062,E,051611.000,A,A*5A
$GPGLL,5157.1246,N,00425.3066,E,051612.000,A,A*5F
$GPGLL,5157.1246,N,00425.3063,E,051613.000,A,A*5B
$GPGLL,5157.1246,N,00425.3063,E,051614.000,A,A*5C
$GPGLL,5157.1246,N,00425.3062,E,051615.000,A,A*5C
$GPGLL,5157.1246,N,00425.3062,E,051616.000,A,A*5F
$GPGLL,5157.1246,N,00425.3062,E,051617.000,A,A*5E
$GPGLL,5157.1246,N,00425.3062,E,051618.000,A,A*51
$GPGLL,5157.1246,N,00425.3062,E,051619.000,A,A*50
$GPGLL,5157.1246,N,00425.3062,E,051620.000,A,A*5A
$GPGLL,5157.1246,N,00425.3062,E,051621.000,A,A*5B
$GPGLL,5157.1246,N,00425.3062,E,051622.000,A,A*58
$GPGLL,5157.1246,N,00425.3062,E,051623.000,A,A*59
$GPGLL,5157.1246,N,00425.3062,E,051624.000,A,A*5E
$GPGLL,5157.1246,N,00425.3062,E,051625.000,A,A*5F
$GPGLL,5157.1246,N,00425.3062,E,051626.000,A,A*5C
$GPGLL,5157.1246,N,00425.3062,E,051627.000,A,A*5D
$GPGLL,5157.1246,N,00425.3062,E,051628.000,A,A*52
$GPGLL,5157.1246,N,00425.3062,E,051629.000,A,A*53
$GPGLL,5157.1246,N,00425.3062,E,051630.000,A,A*5B
$GPGLL,5157.1250,N,00425.3066,E,051631.000,A,A*59
$GPGLL,5157.1257,N,00425.3078,E,051632.000,A,A*52
$GPGLL,5157.1267,N,00425.3097,E,051633.000,A,A*51
$GPGLL,5157.1278,N,00425.3117,E,051634.000,A,A*51
$GPGLL,5157.1291,N,00425.3144,E,051635.000,A,A*51
$GPGLL,5157.1305,N,00425.3180,E,051636.000,A,A*56
$GPGLL,5157.1319,N,00425.3217,E,051637.000,A,A*57
$GPGLL,5157.1337,N,00425.3260,E,051638.000,A,A*54
$GPGLL,5157.1360,N,00425.3301,E,051639.000,A,A*51
$GPGLL,5157.1383,N,00425.3333,E,051640.000,A,A*53
$GPGLL,5157.1412,N,00425.3365,E,051641.000,A,A*5E
$GPGLL,5157.1438,N,00425.3403,E,051642.000,A,A*52
$GPGLL,5157.1464,N,00425.3450,E,051643.000,A,A*5C
$GPGLL,5157.1488,N,00425.3500,E,051644.000,A,A*5D
$GPGLL,5157.1510,N,00425.3554,E,051645.000,A,A*5D
$GPGLL,5157.1533,N,00425.3609,E,051646.000,A,A*54
$GPGLL,5157.1555,N,00425.3664,E,051647.000,A,A*5E
$GPGLL,5157.1578,N,00425.3721,E,051648.000,A,A*5E
$GPGLL,5157.1603,N,00425.3778,E,051649.000,A,A*5C
$GPGLL,5157.1628,N,00425.3838,E,051650.000,A,A*56
$GPGLL,5157.1652,N,00425.3898,E,051651.000,A,A*50
$GPGLL,5157.1676,N,00425.3959,E,051652.000,A,A*59
$GPGLL,5157.1699,N,00425.4020,E,051653.000,A,A*59
$GPGLL,5157.1721,N,00425.4079,E,051654.000,A,A*50
