$GPGGA,045655.000,5159.2052,N,00421.1561,E,1,18,0.6,-11.3,M,47.1,M,,*41
$GPGLL,5159.2052,N,00421.1561,E,045655.000,A,A*57
$GPVTG,56.5,T,,M,15.4,N,28.5,K,A*34
$GPGSV,2,1,08,02,21,105,41,06,22,072,39,12,81,055,34,19,17,040,37*78
$GPGSV,2,2,08,24,41,134,37,25,57,259,39,29,13,195,28,32,42,280,39*78
$GLGSV,3,1,09,68,24,242,36,69,33,300,42,70,05,354,23,77,38,085,34*6D
$GLGSV,3,2,09,78,71,334,44,79,23,288,40,86,13,017,31,87,48,085,44*6F
$GLGSV,3,3,09,88,32,140,41*5D
$BDGSV,2,1,07,208,20,061,34,210,04,068,35,211,18,171,33,212,48,118,34*65
$BDGSV,2,2,07,223,21,286,38,224,45,104,41,225,72,289,38*65
$GPGSA,A,3,12,25,32,24,06,02,19,29,,,,,1.2,0.6,1.0*32
$GNGSA,A,3,68,69,77,78,79,86,87,88,,,,,1.2,0.6,1.0*29
$BDGSA,A,3,212,224,,,,,,,,,,,1.2,0.6,1.0*22
$GPRMC,045655.000,A,5159.2052,N,00421.1561,E,15.4,56.5,270621,,,A*66
$GPGGA,045656.000,5159.2077,N,00421.1618,E,1,18,0.6,-11.6,M,47.1,M,,*4D
$GPGLL,5159.2077,N,00421.1618,E,045656.000,A,A*5E
$GPVTG,54.8,T,,M,15.0,N,27.7,K,A*32
$GPGSV,2,1,08,02,21,105,41,06,22,072,40,12,81,055,33,19,17,040,36*70
$GPGSV,2,2,08,24,41,134,36,25,57,259,38,29,13,195,28,32,42,280,39*78
$GLGSV,3,1,09,68,24,242,35,69,33,300,42,70,05,354,21,77,38,085,34*6C
$GLGSV,3,2,09,78,71,334,43,79,23,288,40,86,13,017,30,87,48,085,44*69
$GLGSV,3,3,09,88,32,140,41*5D
$BDGSV,2,1,07,208,20,061,34,210,04,068,35,211,18,171,33,212,48,118,34*65
$BDGSV,2,2,07,223,21,286,38,224,45,104,41,225,72,289,38*65
$GPGSA,A,3,12,25,32,24,06,02,19,29,,,,,1.2,0.6,1.0*32
$GNGSA,A,3,68,69,77,78,79,86,87,88,,,,,1.2,0.6,1.0*29
$BDGSA,A,3,212,224,,,,,,,,,,,1.2,0.6,1.0*22
$GPRMC,045656.000,A,5159.2077,N,00421.1618,E,15.0,54.8,270621,,,A*64
$GPGGA,045657.000,5159.2101,N,00421.1670,E,1,18,0.6,-11.2,M,47.1,M,,*46
$GPGLL,5159.2101,N,00421.1670,E,045657.000,A,A*51
$GPVTG,49.1,T,,M,14.3,N,26.5,K,A*36
$GPGSV,2,1,08,02,21,105,41,06,22,072,40,12,81,056,33,19,17,040,36*73
$GPGSV,2,2,08,24,41,134,36,25,57,259,38,29,13,195,28,32,42,280,39*78
$GLGSV,3,1,09,68,24,241,35,69,33,300,42,70,05,354,20,77,38,085,34*6E
$GLGSV,3,2,09,78,71,334,43,79,23,288,40,86,13,017,29,87,48,085,44*61
$GLGSV,3,3,09,88,32,140,41*5D
$BDGSV,2,1,07,208,20,061,34,210,04,068,34,211,18,171,33,212,48,118,33*63
$BDGSV,2,2,07,223,21,286,37,224,45,104,40,225,72,289,38*6B
$GPGSA,A,3,12,25,32,24,06,02,19,29,,,,,1.2,0.6,1.0*32
$GNGSA,A,3,68,69,77,78,79,86,87,88,,,,,1.2,0.6,1.0*29
$BDGSA,A,3,212,224,,,,,,,,,,,1.2,0.6,1.0*22
$GPRMC,045657.000,A,5159.2101,N,00421.1670,E,14.3,49.1,270621,,,A*6C
$GPGGA,045658.000,5159.2126,N,00421.1719,E,1,18,0.6,-10.6,M,47.1,M,,*47
$GPGLL,5159.2126,N,00421.1719,E,045658.000,A,A*55
$GPVTG,41.8,T,,M,13.7,N,25.4,K,A*36
$GPGSV,2,1,08,02,21,105,41,06,22,072,40,12,81,056,34,19,17,040,35*77
$GPGSV,2,2,08,24,41,134,40,25,57,259,38,29,13,195,27,32,42,280,39*76
$GLGSV,3,1,09,68,24,241,35,69,33,300,42,70,05,354,18,77,38,085,34*65
$GLGSV,3,2,09,78,71,334,43,79,23,288,39,86,13,017,29,87,48,085,44*6F
$GLGSV,3,3,09,88,32,140,41*5D
$BDGSV,2,1,07,208,20,061,35,210,04,068,33,211,18,171,33,212,48,118,33*65
$BDGSV,2,2,07,223,21,286,37,224,45,104,40,225,72,289,38*6B
$GPGSA,A,3,12,25,32,24,06,02,19,29,,,,,1.2,0.6,1.0*32
$GNGSA,A,3,68,69,77,78,79,86,87,88,,,,,1.2,0.6,1.0*29
$BDGSA,A,3,212,224,,,,,,,,,,,1.2,0.6,1.0*22
$GPRMC,045658.000,A,5159.2126,N,00421.1719,E,13.7,41.8,270621,,,A*6A
$GPGGA,045659.000,5159.2148,N,00421.1764,E,1,17,0.6,-10.3,M,47.1,M,,*4E
$GPGLL,5159.2148,N,00421.1764,E,045659.000,A,A*56
$GPVTG,54.3,T,,M,12.1,N,22.5,K,A*38
$GPGSV,2,1,08,02,21,105,40,06,22,072,40,12,81,056,36,19,17,040,34*75
$GPGSV,2,2,08,24,41,134,41,25,57,259,38,29,13,195,27,32,42,280,39*77
$GLGSV,3,1,09,68,24,241,35,69,33,300,42,70,05,354,17,77,38,085,34*6A
$GLGSV,3,2,09,78,71,334,43,79,23,288,39,86,13,017,28,87,48,085,44*6E
$GLGSV,3,3,09,88,32,140,41*5D
$BDGSV,2,1,07,208,20,061,35,210,04,068,32,211,18,171,32,212,48,118,34*62
$BDGSV,2,2,07,223,21,286,37,224,45,104,39,225,72,289,42*68
$GPGSA,A,3,12,25,32,24,06,02,19,29,,,,,1.2,0.6,1.0*32
$GNGSA,A,3,68,69,77,78,79,87,88,,,,,,1.2,0.6,1.0*27
$BDGSA,A,3,212,224,,,,,,,,,,,1.2,0.6,1.0*22
$GPRMC,045659.000,A,5159.2148,N,00421.1764,E,12.1,54.3,270621,,,A*61
$GPGGA,045700.000,5159.2149,N,00421.1805,E,1,18,0.6,-9.8,M,47.1,M,,*76
$GPGLL,5159.2149,N,00421.1805,E,045700.000,A,A*52
$GPVTG,97.8,T,,M,12.7,N,23.5,K,A*3B
$GPGSV,2,1,08,02,21,105,40,06,22,072,39,12,81,056,45,19,17,040,33*78
$GPGSV,2,2,08,24,41,134,41,25,57,259,38,29,13,195,39,32,42,280,40*76
$GLGSV,3,1,09,68,24,241,35,69,33,300,42,70,05,354,15,77,38,085,34*68
$GLGSV,3,2,09,78,71,334,43,79,23,288,42,86,13,017,27,87,48,085,44*6D
$GLGSV,3,3,09,88,32,140,41*5D
$BDGSV,2,1,07,208,20,061,35,210,04,068,32,211,18,171,36,212,48,118,38*6A
$BDGSV,2,2,07,223,21,286,39,224,45,104,39,225,72,289,44*60
$GPGSA,A,3,12,25,32,24,06,02,19,29,,,,,1.2,0.6,1.0*32
$GNGSA,A,3,68,69,77,78,79,86,87,88,,,,,1.2,0.6,1.0*29
$BDGSA,A,3,212,224,,,,,,,,,,,1.2,0.6,1.0*22
$GPRMC,045700.000,A,5159.2149,N,00421.1805,E,12.7,97.8,270621,,,A*67
$GPGGA,045701.000,5159.2125,N,00421.1848,E,1,18,0.6,-10.2,M,47.1,M,,*46
$GPGLL,5159.2125,N,00421.1848,E,045701.000,A,A*50
$GPVTG,138.3,T,,M,13.8,N,25.5,K,A*0C
$GPGSV,2,1,08,02,21,105,40,06,22,072,39,12,81,056,46,19,17,040,33*7B
$GPGSV,2,2,08,24,41,134,41,25,57,259,38,29,13,195,38,32,42,280,39*79
$GLGSV,3,1,09,68,24,241,39,69,33,300,42,70,05,354,14,77,38,085,34*65
$GLGSV,3,2,09,78,71,334,43,79,23,288,41,86,13,017,26,87,48,085,44*6F
$GLGSV,3,3,09,88,32,140,41*5D
$BDGSV,2,1,08,205,13,118,35,208,20,061,35,210,04,068,31,211,18,171,36*63
$BDGSV,2,2,08,212,48,118,38,223,21,286,39,224,45,104,39,225,72,289,44*61
$GPGSA,A,3,12,25,32,24,06,02,19,29,,,,,1.2,0.6,1.0*32
$GNGSA,A,3,68,69,77,78,79,86,87,88,,,,,1.2,0.6,1.0*29
$BDGSA,A,3,212,224,,,,,,,,,,,1.2,0.6,1.0*22
$GPRMC,045701.000,A,5159.2125,N,00421.1848,E,13.8,138.3,270621,,,A*54
$GPGGA,045702.000,5159.2091,N,00421.1879,E,1,18,0.6,-10.0,M,47.1,M,,*4B
$GPGLL,5159.2091,N,00421.1879,E,045702.000,A,A*5F
$GPVTG,158.4,T,,M,14.1,N,26.1,K,A*04
$GPGSV,2,1,08,02,21,105,40,06,22,072,38,12,81,056,46,19,17,040,33*7A
$GPGSV,2,2,08,24,41,134,40,25,57,259,38,29,14,195,38,32,42,280,38*7E
$GLGSV,3,1,09,68,24,241,39,69,33,300,41,70,05,354,12,77,38,085,34*60
$GLGSV,3,2,09,78,71,334,43,79,23,288,41,86,13,017,25,87,48,085,44*6C
$GLGSV,3,3,09,88,32,140,41*5D
$BDGSV,2,1,08,205,13,118,35,208,20,061,36,210,04,068,31,211,18,171,38*6E
$BDGSV,2,2,08,212,48,118,38,223,21,286,38,224,45,104,39,225,72,289,43*67
$GPGSA,A,3,12,25,32,24,06,02,19,29,,,,,1.2,0.6,1.0*32
$GNGSA,A,3,68,69,77,78,79,86,87,88,,,,,1.2,0.6,1.0*29
$BDGSA,A,3,212,224,,,,,,,,,,,1.2,0.6,1.0*22
$GPRMC,045702.000,A,5159.2091,N,00421.1879,E,14.1,158.4,270621,,,A*54
$GPGGA,045703.000,5159.2054,N,00421.1895,E,1,18,0.6,-10.2,M,47.1,M,,*43
$GPGLL,5159.2054,N,00421.1895,E,045703.000,A,A*55
$GPVTG,178.5,T,,M,14.5,N,26.9,K,A*0B
$GPGSV,2,1,08,02,21,105,40,06,22,072,40,12,81,056,45,19,17,040,33*76
$GPGSV,2,2,08,24,41,134,40,25,57,259,37,29,14,195,39,32,42,280,38*70
$GLGSV,3,1,09,68,24,241,39,69,33,300,40,70,05,354,11,77,38,085,34*62
$GLGSV,3,2,09,78,71,334,43,79,23,288,40,86,13,017,25,87,48,085,45*6C
$GLGSV,3,3,09,88,32,140,41*5D
$BDGSV,2,1,08,205,13,118,34,208,20,061,36,210,04,068,31,211,18,171,38*6F
$BDGSV,2,2,08,212,48,118,38,223,21,286,38,224,45,104,39,225,72,289,42*66
$GPGSA,A,3,12,25,32,24,06,02,19,29,,,,,1.2,0.6,1.0*32
$GNGSA,A,3,68,69,77,78,79,86,87,88,,,,,1.2,0.6,1.0*29
$BDGSA,A,3,212,224,,,,,,,,,,,1.2,0.6,1.0*22
$GPRMC,045703.000,A,5159.2054,N,00421.1895,E,14.5,178.5,270621,,,A*59
$GPGGA,045704.000,5159.2016,N,00421.1887,E,1,17,0.6,-10.2,M,47.1,M,,*4E
$GPGLL,5159.2016,N,00421.1887,E,045704.000,A,A*57
$GPVTG,195.7,T,,M,14.4,N,26.7,K,A*05
$GPGSV,2,1,08,02,21,105,40,06,22,072,40,12,81,056,45,19,17,040,35*70
$GPGSV,2,2,08,24,41,134,40,25,57,259,37,29,14,195,39,32,42,280,38*70
$GLGSV,3,1,09,68,24,241,39,69,33,300,40,70,05,354,09,77,38,085,34*6B
$GLGSV,3,2,09,78,71,334,42,79,23,288,40,86,13,017,24,87,48,085,45*6C
$GLGSV,3,3,09,88,32,140,42*5E
$BDGSV,2,1,08,205,13,118,34,208,20,061,36,210,04,068,31,211,18,171,38*6F
$BDGSV,2,2,08,212,48,118,39,223,21,286,37,224,45,104,39,225,72,289,42*68
$GPGSA,A,3,12,25,32,24,06,02,19,29,,,,,1.2,0.6,1.0*32
$GNGSA,A,3,68,69,77,78,79,87,88,,,,,,1.2,0.6,1.0*27
$BDGSA,A,3,212,224,,,,,,,,,,,1.2,0.6,1.0*22
$GPRMC,045704.000,A,5159.2016,N,00421.1887,E,14.4,195.7,270621,,,A*5B
$GPGGA,045705.000,5159.1978,N,00421.1868,E,1,17,0.6,-10.5,M,47.1,M,,*4B
$GPGLL,5159.1978,N,00421.1868,E,045705.000,A,A*55
$GPVTG,195.6,T,,M,14.6,N,27.1,K,A*01
$GPGSV,2,1,08,02,21,105,40,06,22,072,40,12,81,056,45,19,17,040,35*70
$GPGSV,2,2,08,24,41,134,40,25,57,259,37,29,14,195,39,32,42,280,38*70
$GLGSV,3,1,09,68,24,241,39,69,33,300,40,70,05,354,08,77,38,085,34*6A
$GLGSV,3,2,09,78,71,334,42,79,23,288,40,86,13,017,23,87,48,085,45*6B
$GLGSV,3,3,09,88,33,140,43*5E
$BDGSV,2,1,08,205,13,118,33,208,20,061,35,210,04,068,31,211,18,171,38*6B
$BDGSV,2,2,08,212,48,118,39,223,21,286,37,224,44,105,43,225,72,289,41*66
$GPGSA,A,3,12,25,32,24,06,02,19,29,,,,,1.2,0.6,1.0*32
$GNGSA,A,3,68,69,77,78,79,87,88,,,,,,1.2,0.6,1.0*27
$BDGSA,A,3,212,224,,,,,,,,,,,1.2,0.6,1.0*22
$GPRMC,045705.000,A,5159.1978,N,00421.1868,E,14.6,195.6,270621,,,A*5A
$GPGGA,045706.000,5159.1938,N,00421.1852,E,1,17,0.6,-10.6,M,47.1,M,,*46
$GPGLL,5159.1938,N,00421.1852,E,045706.000,A,A*5B
$GPVTG,192.6,T,,M,14.7,N,27.3,K,A*05
$GPGSV,2,1,08,02,21,105,40,06,22,072,40,12,81,056,44,19,17,040,34*70
$GPGSV,2,2,08,24,41,134,41,25,57,259,37,29,14,195,39,32,42,280,39*70
$GLGSV,3,1,09,68,24,241,38,69,33,300,40,70,05,354,08,77,38,085,34*6B
$GLGSV,3,2,09,78,71,334,41,79,23,288,40,86,13,017,23,87,48,085,45*68
$GLGSV,3,3,09,88,33,140,43*5E
$BDGSV,2,1,08,205,13,118,33,208,20,061,35,210,04,068,31,211,18,171,38*6B
$BDGSV,2,2,08,212,48,118,39,223,21,286,37,224,44,105,45,225,72,289,40*61
$GPGSA,A,3,12,25,32,24,06,02,19,29,,,,,1.2,0.6,1.0*32
$GNGSA,A,3,68,69,77,78,79,87,88,,,,,,1.2,0.6,1.0*27
$BDGSA,A,3,212,224,,,,,,,,,,,1.2,0.6,1.0*22
$GPRMC,045706.000,A,5159.1938,N,00421.1852,E,14.7,192.6,270621,,,A*52
$GPGGA,045707.000,5159.1898,N,00421.1845,E,1,18,0.6,-10.8,M,47.1,M,,*4B
$GPGLL,5159.1898,N,00421.1845,E,045707.000,A,A*57
$GPVTG,184.2,T,,M,15.0,N,27.8,K,A*0B
$GPGSV,2,1,08,02,21,105,40,06,22,072,40,12,81,056,43,19,17,040,34*77
$GPGSV,2,2,08,24,41,134,41,25,57,259,37,29,14,195,39,32,42,280,39*70
$GLGSV,3,1,09,68,24,241,38,69,33,300,40,70,05,354,07,77,38,085,34*64
$GLGSV,3,2,09,78,71,334,41,79,23,288,40,86,13,017,22,87,48,085,45*69
$GLGSV,3,3,09,88,33,140,43*5E
$BDGSV,2,1,08,205,13,118,33,208,20,061,34,210,04,068,30,211,18,171,38*6B
$BDGSV,2,2,08,212,48,118,39,223,21,286,37,224,44,105,45,225,72,289,40*61
$GPGSA,A,3,12,25,32,24,06,02,19,29,,,,,1.2,0.6,1.0*32
$GNGSA,A,3,68,69,77,78,79,86,87,88,,,,,1.2,0.6,1.0*29
$BDGSA,A,3,212,224,,,,,,,,,,,1.2,0.6,1.0*22
$GPRMC,045707.000,A,5159.1898,N,00421.1845,E,15.0,184.2,270621,,,A*5B
$GPGGA,045708.000,5159.1856,N,00421.1850,E,1,18,0.6,-10.9,M,47.1,M,,*43
$GPGLL,5159.1856,N,00421.1850,E,045708.000,A,A*5E
$GPVTG,173.2,T,,M,15.3,N,28.3,K,A*04
$GPGSV,2,1,08,02,21,105,40,06,22,072,39,12,81,056,43,19,17,040,34*79
$GPGSV,2,2,08,24,41,134,41,25,57,259,37,29,14,195,39,32,42,280,39*70
$GLGSV,2,1,08,68,24,241,38,69,33,300,40,77,38,085,34,78,71,334,40*6A
$GLGSV,2,2,08,79,23,288,40,86,13,017,25,87,48,085,45,88,33,140,43*64
$BDGSV,2,1,08,205,13,118,33,208,20,061,34,210,04,068,29,211,18,171,38*63
$BDGSV,2,2,08,212,48,118,39,223,21,286,37,224,44,105,45,225,72,289,39*6F
$GPGSA,A,3,12,25,32,24,06,02,19,29,,,,,1.2,0.6,1.0*32
$GNGSA,A,3,68,69,77,78,79,86,87,88,,,,,1.2,0.6,1.0*29
$BDGSA,A,3,212,224,,,,,,,,,,,1.2,0.6,1.0*22
$GPRMC,045708.000,A,5159.1856,N,00421.1850,E,15.3,173.2,270621,,,A*59
$GPGGA,045709.000,5159.1815,N,00421.1859,E,1,18,0.6,-10.5,M,47.1,M,,*40
$GPGLL,5159.1815,N,00421.1859,E,045709.000,A,A*51
$GPVTG,169.6,T,,M,15.0,N,27.7,K,A*03
$GPGSV,2,1,08,02,21,105,40,06,22,072,39,12,81,056,42,19,17,040,34*78
$GPGSV,2,2,08,24,41,134,41,25,57,259,37,29,14,195,38,32,42,280,39*71
$GLGSV,2,1,08,68,24,241,38,69,33,300,40,77,38,085,34,78,71,334,40*6A
$GLGSV,2,2,08,79,23,288,40,86,13,017,28,87,48,085,45,88,33,140,43*69
$BDGSV,2,1,08,205,13,118,33,208,20,061,34,210,04,068,28,211,18,171,37*6D
$BDGSV,2,2,08,212,48,118,39,223,21,286,37,224,44,105,45,225,72,289,39*6F
$GPGSA,A,3,12,25,32,24,06,02,19,29,,,,,1.2,0.6,1.0*32
$GNGSA,A,3,68,69,77,78,79,86,87,88,,,,,1.2,0.6,1.0*29
$BDGSA,A,3,212,224,,,,,,,,,,,1.2,0.6,1.0*22
$GPRMC,045709.000,A,5159.1815,N,00421.1859,E,15.0,169.6,270621,,,A*5A
$GPGGA,045710.000,5159.1773,N,00421.1870,E,1,18,0.6,-10.7,M,47.1,M,,*4E
$GPGLL,5159.1773,N,00421.1870,E,045710.000,A,A*5D
$GPVTG,171.0,T,,M,14.9,N,27.6,K,A*05
$GPGSV,2,1,08,02,21,105,40,06,22,072,39,12,81,056,41,19,17,040,34*7B
$GPGSV,2,2,08,24,41,134,41,25,57,259,37,29,14,195,37,32,42,280,40*70
$GLGSV,2,1,08,68,24,241,38,69,33,300,39,77,38,085,34,78,71,334,40*64
$GLGSV,2,2,08,79,23,288,40,86,13,017,28,87,48,085,45,88,33,140,43*69
$BDGSV,2,1,08,205,13,118,33,208,20,061,33,210,04,068,28,211,18,171,37*6A
$BDGSV,2,2,08,212,48,118,39,223,21,286,36,224,44,105,45,225,72,289,38*6F
$GPGSA,A,3,12,25,32,24,06,02,19,29,,,,,1.2,0.6,1.0*32
$GNGSA,A,3,68,69,77,78,79,86,87,88,,,,,1.2,0.6,1.0*29
$BDGSA,A,3,212,224,,,,,,,,,,,1.2,0.6,1.0*22
$GPRMC,045710.000,A,5159.1773,N,00421.1870,E,14.9,171.0,270621,,,A*51
$GPGGA,045711.000,5159.1731,N,00421.1880,E,1,18,0.6,-10.7,M,47.1,M,,*46
$GPGLL,5159.1731,N,00421.1880,E,045711.000,A,A*55
$GPVTG,171.2,T,,M,15.8,N,29.2,K,A*0D
$GPGSV,2,1,08,02,21,105,40,06,22,072,39,12,81,056,41,19,17,040,34*7B
$GPGSV,2,2,08,24,41,134,41,25,57,259,37,29,14,195,36,32,42,280,40*71
$GLGSV,2,1,08,68,24,241,38,69,33,300,39,77,38,085,35,78,71,334,39*6B
$GLGSV,2,2,08,79,23,288,40,86,13,017,28,87,48,085,45,88,33,140,43*69
$BDGSV,2,1,08,205,13,118,32,208,20,061,33,210,04,068,28,211,18,171,37*6B
$BDGSV,2,2,08,212,48,118,39,223,21,286,36,224,44,105,45,225,72,289,37*60
$GPGSA,A,3,12,25,32,24,06,02,19,29,,,,,1.2,0.6,1.0*32
$GNGSA,A,3,68,69,77,78,79,86,87,88,,,,,1.2,0.6,1.0*29
$BDGSA,A,3,212,224,,,,,,,,,,,1.2,0.6,1.0*22
$GPRMC,045711.000,A,5159.1731,N,00421.1880,E,15.8,171.2,270621,,,A*5B
$GPGGA,045712.000,5159.1688,N,00421.1890,E,1,18,0.6,-10.8,M,47.1,M,,*48
$GPGLL,5159.1688,N,00421.1890,E,045712.000,A,A*54
$GPVTG,172.0,T,,M,15.7,N,29.1,K,A*00
$GPGSV,2,1,08,02,21,105,39,06,22,072,39,12,81,056,40,19,17,040,38*78
$GPGSV,2,2,08,24,41,134,40,25,57,259,36,29,14,195,39,32,42,280,40*7E
$GLGSV,2,1,08,68,24,241,37,69,33,300,39,77,38,085,35,78,71,334,39*64
$GLGSV,2,2,08,79,23,288,39,86,13,017,28,87,48,085,45,88,33,140,44*60
$BDGSV,2,1,08,205,13,118,32,208,20,061,33,210,04,068,30,211,18,171,37*62
$BDGSV,2,2,08,212,48,118,39,223,21,286,35,224,44,105,45,225,72,289,37*63
$GPGSA,A,3,12,25,32,24,06,02,19,29,,,,,1.2,0.6,1.0*32
$GNGSA,A,3,68,69,77,78,79,86,87,88,,,,,1.2,0.6,1.0*29
$BDGSA,A,3,212,224,,,,,,,,,,,1.2,0.6,1.0*22
$GPRMC,045712.000,A,5159.1688,N,00421.1890,E,15.7,172.0,270621,,,A*54
$GPGGA,045713.000,5159.1643,N,00421.1900,E,1,18,0.6,-10.6,M,47.1,M,,*48
$GPGLL,5159.1643,N,00421.1900,E,045713.000,A,A*5A
$GPVTG,170.1,T,,M,16.2,N,29.9,K,A*0D
$GPGSV,2,1,08,02,21,105,39,06,22,072,38,12,81,056,40,19,17,040,38*79
$GPGSV,2,2,08,24,41,134,40,25,57,259,36,29,14,195,39,32,42,280,40*7E
$GLGSV,2,1,08,68,24,241,37,69,33,300,39,77,38,085,35,78,71,334,39*64
$GLGSV,2,2,08,79,23,288,39,86,13,017,28,87,48,085,45,88,33,140,44*60
$BDGSV,2,1,08,205,13,118,32,208,20,061,33,210,04,068,29,211,18,171,36*6B
$BDGSV,2,2,08,212,48,118,39,223,21,286,35,224,44,105,45,225,72,289,37*63
$GPGSA,A,3,12,25,32,24,06,02,19,29,,,,,1.2,0.6,1.0*32
$GNGSA,A,3,68,69,77,78,79,86,87,88,,,,,1.2,0.6,1.0*29
$BDGSA,A,3,212,224,,,,,,,,,,,1.2,0.6,1.0*22
$GPRMC,045713.000,A,5159.1643,N,00421.1900,E,16.2,170.1,270621,,,A*5F
$GPGGA,045714.000,5159.1599,N,00421.1912,E,1,18,0.6,-10.6,M,47.1,M,,*48
$GPGLL,5159.1599,N,00421.1912,E,045714.000,A,A*5A
$GPVTG,169.7,T,,M,15.9,N,29.4,K,A*06
$GPGSV,2,1,08,02,21,105,39,06,22,072,38,12,81,056,40,19,17,040,38*79
$GPGSV,2,2,08,24,41,134,40,25,57,259,36,29,14,195,38,32,42,280,41*7E
$GLGSV,2,1,08,68,24,241,37,69,33,300,38,77,38,085,35,78,71,334,38*64
$GLGSV,2,2,08,79,23,288,39,86,13,017,28,87,48,085,45,88,33,140,44*60
$BDGSV,2,1,08,205,13,118,32,208,20,061,32,210,04,068,29,211,18,171,36*6A
$BDGSV,2,2,08,212,48,118,39,223,21,286,34,224,44,105,45,225,72,289,36*63
$GPGSA,A,3,12,25,32,24,06,02,19,29,,,,,1.2,0.6,1.0*32
$GNGSA,A,3,68,69,77,78,79,86,87,88,,,,,1.2,0.6,1.0*29
$BDGSA,A,3,212,224,,,,,,,,,,,1.2,0.6,1.0*22
$GPRMC,045714.000,A,5159.1599,N,00421.1912,E,15.9,169.7,270621,,,A*59
$GPGGA,045715.000,5159.1555,N,00421.1928,E,1,18,0.6,-10.5,M,47.1,M,,*43
$GPGLL,5159.1555,N,00421.1928,E,045715.000,A,A*52
$GPVTG,168.0,T,,M,15.9,N,29.5,K,A*01
$GPGSV,2,1,08,02,21,105,39,06,22,072,37,12,81,056,39,19,17,040,37*77
$GPGSV,2,2,08,24,41,134,40,25,57,259,36,29,14,195,38,32,42,280,41*7E
$GLGSV,2,1,08,68,24,241,36,69,33,300,38,77,38,085,35,78,71,334,38*65
$GLGSV,2,2,08,79,23,288,39,86,13,017,28,87,48,085,45,88,33,140,44*60
$BDGSV,2,1,08,205,13,118,32,208,20,061,31,210,04,068,28,211,18,171,36*68
$BDGSV,2,2,08,212,48,118,39,223,21,286,34,224,44,105,45,225,72,289,36*63
$GPGSA,A,3,12,25,32,24,06,02,19,29,,,,,1.2,0.6,1.0*32
$GNGSA,A,3,68,69,77,78,79,86,87,88,,,,,1.2,0.6,1.0*29
$BDGSA,A,3,212,224,,,,,,,,,,,1.2,0.6,1.0*22
$GPRMC,045715.000,A,5159.1555,N,00421.1928,E,15.9,168.0,270621,,,A*57
$GPGGA,045716.000,5159.1513,N,00421.1942,E,1,18,0.6,-10.5,M,47.1,M,,*4E
$GPGLL,5159.1513,N,00421.1942,E,045716.000,A,A*5F
$GPVTG,167.1,T,,M,15.9,N,29.4,K,A*0E
$GPGSV,2,1,08,02,21,105,39,06,22,072,37,12,81,056,39,19,17,040,36*76
$GPGSV,2,2,08,24,41,134,40,25,57,259,36,29,14,195,38,32,42,280,42*7D
$GLGSV,2,1,08,68,24,241,36,69,33,300,38,77,38,085,35,78,71,334,38*65
$GLGSV,2,2,08,79,23,288,38,86,13,017,28,87,48,085,45,88,33,140,44*61
$BDGSV,2,1,08,205,13,118,31,208,20,061,31,210,04,068,28,211,18,171,36*6B
$BDGSV,2,2,08,212,48,118,39,223,21,286,33,224,44,105,45,225,72,289,36*64
$GPGSA,A,3,12,25,32,24,06,02,19,29,,,,,1.2,0.6,1.0*32
$GNGSA,A,3,68,69,77,78,79,86,87,88,,,,,1.2,0.6,1.0*29
$BDGSA,A,3,212,224,,,,,,,,,,,1.2,0.6,1.0*22
$GPRMC,045716.000,A,5159.1513,N,00421.1942,E,15.9,167.1,270621,,,A*54
$GPGGA,045717.000,5159.1472,N,00421.1959,E,1,18,0.6,-10.4,M,47.1,M,,*42
$GPGLL,5159.1472,N,00421.1959,E,045717.000,A,A*52
$GPVTG,165.2,T,,M,15.8,N,29.2,K,A*08
$GPGSV,2,1,08,02,21,105,39,06,22,072,37,12,81,056,39,19,17,040,36*76
$GPGSV,2,2,08,24,41,134,40,25,57,259,36,29,14,195,38,32,42,280,42*7D
$GLGSV,2,1,08,68,24,241,35,69,33,300,38,77,38,085,35,78,71,334,38*66
$GLGSV,2,2,08,79,23,288,37,86,13,017,27,87,48,085,45,88,33,140,44*61
$BDGSV,2,1,08,205,13,118,31,208,20,061,31,210,04,068,27,211,18,171,36*64
$BDGSV,2,2,08,212,48,118,39,223,21,286,33,224,44,105,45,225,72,289,35*67
$GPGSA,A,3,12,25,32,24,06,02,19,29,,,,,1.2,0.6,1.0*32
$GNGSA,A,3,68,69,77,78,79,86,87,88,,,,,1.2,0.6,1.0*29
$BDGSA,A,3,212,224,,,,,,,,,,,1.2,0.6,1.0*22
$GPRMC,045717.000,A,5159.1472,N,00421.1959,E,15.8,165.2,270621,,,A*59
$GPGGA,045718.000,5159.1431,N,00421.1979,E,1,18,0.6,-10.3,M,47.1,M,,*4F
$GPGLL,5159.1431,N,00421.1979,E,045718.000,A,A*58
$GPVTG,163.6,T,,M,15.8,N,29.3,K,A*0B
$GPGSV,2,1,08,02,21,105,39,06,22,072,37,12,81,056,38,19,17,040,35*74
$GPGSV,2,2,08,24,41,134,40,25,57,259,36,29,14,195,37,32,42,280,42*72
$GLGSV,2,1,08,68,24,241,35,69,33,300,38,77,38,085,35,78,71,334,38*66
$GLGSV,2,2,08,79,23,288,37,86,13,017,27,87,48,085,45,88,33,140,44*61
$BDGSV,2,1,08,205,13,118,30,208,20,061,31,210,04,068,27,211,18,171,36*65
$BDGSV,2,2,08,212,48,118,39,223,21,286,32,224,44,105,44,225,72,289,35*67
$GPGSA,A,3,12,25,32,24,06,02,19,29,,,,,1.2,0.6,1.0*32
$GNGSA,A,3,68,69,77,78,79,86,87,88,,,,,1.2,0.6,1.0*29
$BDGSA,A,3,212,224,,,,,,,,,,,1.2,0.6,1.0*22
$GPRMC,045718.000,A,5159.1431,N,00421.1979,E,15.8,163.6,270621,,,A*51
$GPGGA,045719.000,5159.1391,N,00421.1998,E,1,18,0.6,-10.1,M,47.1,M,,*4E
$GPGLL,5159.1391,N,00421.1998,E,045719.000,A,A*5B
$GPVTG,166.5,T,,M,15.7,N,29.1,K,A*00
$GPGSV,2,1,08,02,21,105,38,06,22,072,37,12,81,056,38,19,17,040,35*75
$GPGSV,2,2,08,24,41,134,40,25,58,259,36,29,14,195,37,32,42,280,42*7D
$GLGSV,2,1,08,68,24,241,34,69,33,300,38,77,38,085,35,78,71,335,38*66
$GLGSV,2,2,08,79,23,288,36,86,13,017,27,87,48,085,45,88,33,140,44*60
$BDGSV,2,1,08,205,13,118,28,208,20,061,30,210,04,068,26,211,18,171,36*6C
$BDGSV,2,2,08,212,48,118,39,223,21,286,31,224,44,105,44,225,72,289,35*64
$GPGSA,A,3,12,25,32,24,06,02,19,29,,,,,1.2,0.6,1.0*32
$GNGSA,A,3,68,69,77,78,79,86,87,88,,,,,1.2,0.6,1.0*29
$BDGSA,A,3,212,224,,,,,,,,,,,1.2,0.6,1.0*22
$GPRMC,045719.000,A,5159.1391,N,00421.1998,E,15.7,166.5,270621,,,A*5B
$GPGGA,045720.000,5159.1350,N,00421.2013,E,1,17,0.6,-9.9,M,47.1,M,,*7F
$GPGLL,5159.1350,N,00421.2013,E,045720.000,A,A*55
$GPVTG,166.4,T,,M,16.3,N,30.1,K,A*0E
$GPGSV,2,1,08,02,21,105,38,06,22,072,37,12,81,056,38,19,17,040,35*75
$GPGSV,2,2,08,24,41,134,40,25,58,259,35,29,14,195,37,32,42,280,42*7E
$GLGSV,2,1,08,68,24,241,34,69,33,300,38,77,38,085,35,78,71,335,37*69
$GLGSV,2,2,08,79,23,288,35,86,13,017,27,87,48,085,45,88,33,140,44*63
$BDGSV,2,1,08,205,13,118,27,208,20,061,30,210,04,068,25,211,18,171,36*60
$BDGSV,2,2,08,212,48,118,39,223,21,286,31,224,44,105,44,225,72,289,35*64
$GPGSA,A,3,12,25,32,24,06,02,19,29,,,,,1.2,0.6,1.0*32
$GNGSA,A,3,68,77,78,79,86,87,88,,,,,,1.2,0.6,1.0*26
$BDGSA,A,3,212,224,,,,,,,,,,,1.2,0.6,1.0*22
$GPRMC,045720.000,A,5159.1350,N,00421.2013,E,16.3,166.4,270621,,,A*53
$GPGGA,045721.000,5159.1308,N,00421.2030,E,1,18,0.6,-9.8,M,47.1,M,,*7C
$GPGLL,5159.1308,N,00421.2030,E,045721.000,A,A*58
$GPVTG,164.8,T,,M,16.1,N,29.8,K,A*03
$GPGSV,2,1,08,02,21,105,37,06,22,072,37,12,81,056,38,19,17,040,34*7B
$GPGSV,2,2,08,24,41,134,40,25,58,259,35,29,14,195,36,32,42,280,42*7F
$GLGSV,2,1,08,68,24,241,34,69,33,300,37,77,38,085,35,78,71,335,37*66
$GLGSV,2,2,08,79,23,288,35,86,13,017,27,87,48,085,45,88,33,140,44*63
$BDGSV,2,1,08,205,13,118,25,208,20,061,30,210,04,068,25,211,18,171,36*62
$BDGSV,2,2,08,212,48,118,39,223,21,286,30,224,44,105,44,225,72,289,35*65
$GPGSA,A,3,12,25,32,24,06,02,19,29,,,,,1.2,0.6,1.0*32
$GNGSA,A,3,68,69,77,78,79,86,87,88,,,,,1.2,0.6,1.0*29
$BDGSA,A,3,212,224,,,,,,,,,,,1.2,0.6,1.0*22
$GPRMC,045721.000,A,5159.1308,N,00421.2030,E,16.1,164.8,270621,,,A*52
$GPGGA,045722.000,5159.1266,N,00421.2048,E,1,17,0.6,-9.3,M,47.1,M,,*7D
$GPGLL,5159.1266,N,00421.2048,E,045722.000,A,A*5D
$GPVTG,166.5,T,,M,15.9,N,29.5,K,A*0A
$GPGSV,2,1,08,02,21,105,37,06,22,072,36,12,81,056,37,19,17,040,34*75
$GPGSV,2,2,08,24,41,134,40,25,58,259,35,29,14,195,36,32,42,280,42*7F
$GLGSV,2,1,08,68,24,241,34,69,33,300,37,77,38,085,34,78,71,335,37*67
$GLGSV,2,2,08,79,23,288,34,86,13,017,26,87,48,085,45,88,33,140,44*63
$BDGSV,2,1,08,205,13,118,24,208,20,061,29,210,04,068,24,211,18,171,36*6A
$BDGSV,2,2,08,212,48,118,39,223,21,286,30,224,44,105,44,225,72,289,34*64
$GPGSA,A,3,12,25,32,24,06,02,19,29,,,,,1.2,0.6,1.0*32
$GNGSA,A,3,68,77,78,79,86,87,88,,,,,,1.2,0.6,1.0*26
$BDGSA,A,3,212,224,,,,,,,,,,,1.2,0.6,1.0*22
$GPRMC,045722.000,A,5159.1266,N,00421.2048,E,15.9,166.5,270621,,,A*53
$GPGGA,045723.000,5159.1222,N,00421.2065,E,1,18,0.6,-9.0,M,47.1,M,,*7F
$GPGLL,5159.1222,N,00421.2065,E,045723.000,A,A*53
$GPVTG,167.7,T,,M,16.3,N,30.2,K,A*0F
$GPGSV,2,1,08,02,21,105,36,06,22,072,36,12,81,056,37,19,17,040,33*73
$GPGSV,2,2,08,24,41,134,40,25,58,259,35,29,14,195,35,32,42,280,42*7C
$GLGSV,2,1,08,68,24,241,33,69,33,300,37,77,38,085,34,78,71,335,37*60
$GLGSV,2,2,08,79,23,288,34,86,13,017,26,87,48,085,45,88,33,140,44*63
$BDGSV,2,1,08,205,13,118,22,208,20,061,29,210,04,068,23,211,18,171,36*6B
$BDGSV,2,2,08,212,48,118,38,223,21,286,29,224,44,105,44,225,72,289,34*6D
$GPGSA,A,3,12,25,32,24,06,02,19,29,,,,,1.2,0.6,1.0*32
$GNGSA,A,3,68,69,77,78,79,86,87,88,,,,,1.2,0.6,1.0*29
$BDGSA,A,3,212,224,,,,,,,,,,,1.2,0.6,1.0*22
$GPRMC,045723.000,A,5159.1222,N,00421.2065,E,16.3,167.7,270621,,,A*57
$GPGGA,045724.000,5159.1177,N,00421.2081,E,1,17,0.6,-8.8,M,47.1,M,,*77
$GPGLL,5159.1177,N,00421.2081,E,045724.000,A,A*5D
$GPVTG,168.2,T,,M,16.8,N,31.0,K,A*0D
$GPGSV,2,1,08,02,21,105,36,06,22,072,36,12,81,056,37,19,17,040,33*73
$GPGSV,2,2,08,24,41,134,40,25,58,259,35,29,14,195,35,32,42,280,41*7F
$GLGSV,2,1,08,68,23,241,33,69,33,300,36,77,38,085,34,78,71,335,37*66
$GLGSV,2,2,08,79,23,288,33,86,13,017,26,87,48,085,45,88,33,140,43*63
$BDGSV,2,1,08,205,13,118,21,208,20,061,29,210,04,068,23,211,18,171,37*69
$BDGSV,2,2,08,212,48,118,38,223,21,286,29,224,44,105,44,225,72,289,34*6D
$GPGSA,A,3,12,25,32,24,06,02,19,29,,,,,1.2,0.6,1.0*32
$GNGSA,A,3,68,77,78,79,86,87,88,,,,,,1.2,0.6,1.0*26
$BDGSA,A,3,212,224,,,,,,,,,,,1.2,0.6,1.0*22
$GPRMC,045724.000,A,5159.1177,N,00421.2081,E,16.8,168.2,270621,,,A*58
$GPGGA,045725.000,5159.1134,N,00421.2099,E,1,17,0.6,-8.7,M,47.1,M,,*77
$GPGLL,5159.1134,N,00421.2099,E,045725.000,A,A*52
$GPVTG,166.1,T,,M,16.5,N,30.5,K,A*09
$GPGSV,2,1,08,02,21,105,36,06,22,072,35,12,81,056,37,19,17,040,32*71
$GPGSV,2,2,08,24,41,134,40,25,58,259,35,29,14,195,34,32,42,280,41*7E
$GLGSV,2,1,08,68,23,241,33,69,33,300,36,77,38,085,36,78,71,335,37*64
$GLGSV,2,2,08,79,23,288,33,86,13,017,25,87,48,085,45,88,33,140,43*60
$BDGSV,2,1,08,205,13,118,19,208,20,061,28,210,04,068,22,211,18,171,37*62
$BDGSV,2,2,08,212,48,118,38,223,21,286,29,224,44,105,44,225,72,289,34*6D
$GPGSA,A,3,12,25,32,24,06,02,19,29,,,,,1.2,0.6,1.0*32
$GNGSA,A,3,68,69,77,78,79,87,88,,,,,,1.2,0.6,1.0*27
$BDGSA,A,3,212,224,,,,,,,,,,,1.2,0.6,1.0*22
$GPRMC,045725.000,A,5159.1134,N,00421.2099,E,16.5,166.1,270621,,,A*57
$GPGGA,045726.000,5159.1091,N,00421.2115,E,1,16,0.6,-8.7,M,47.1,M,,*7E
$GPGLL,5159.1091,N,00421.2115,E,045726.000,A,A*5A
$GPVTG,167.0,T,,M,16.5,N,30.6,K,A*0A
$GPGSV,2,1,08,02,21,105,39,06,22,072,35,12,81,056,37,19,17,040,32*7E
$GPGSV,2,2,08,24,41,134,40,25,58,259,35,29,14,195,34,32,42,280,41*7E
$GLGSV,3,1,09,68,23,241,33,69,33,300,35,70,05,354,18,77,38,085,36*66
$GLGSV,3,2,09,78,71,335,37,79,23,288,33,86,13,017,24,87,48,085,45*6B
$GLGSV,3,3,09,88,33,140,43*5E
$BDGSV,2,1,08,205,13,118,18,208,20,061,28,210,04,068,22,211,18,171,37*63
$BDGSV,2,2,08,212,48,118,38,223,21,286,29,224,44,105,44,225,72,289,34*6D
$GPGSA,A,3,12,25,32,24,06,02,19,29,,,,,1.2,0.6,1.0*32
$GNGSA,A,3,68,77,78,79,87,88,,,,,,,1.2,0.6,1.0*28
$BDGSA,A,3,212,224,,,,,,,,,,,1.2,0.6,1.0*22
$GPRMC,045726.000,A,5159.1091,N,00421.2115,E,16.5,167.0,270621,,,A*5F
$GPGGA,045727.000,5159.1045,N,00421.2127,E,1,18,0.6,-8.7,M,47.1,M,,*79
$GPGLL,5159.1045,N,00421.2127,E,045727.000,A,A*53
$GPVTG,167.5,T,,M,16.5,N,30.6,K,A*0F
$GPGSV,2,1,08,02,21,105,39,06,22,072,35,12,81,056,37,19,17,040,32*7E
$GPGSV,2,2,08,24,41,134,40,25,58,259,35,29,14,195,33,32,42,280,41*79
$GLGSV,3,1,09,68,23,241,33,69,33,300,35,70,05,354,18,77,38,085,36*66
$GLGSV,3,2,09,78,71,335,37,79,23,288,32,86,13,017,24,87,48,085,45*6A
$GLGSV,3,3,09,88,33,140,43*5E
$BDGSV,2,1,08,205,13,118,16,208,20,061,28,210,04,068,21,211,18,171,37*6E
$BDGSV,2,2,08,212,48,118,38,223,21,286,28,224,44,105,44,225,72,289,34*6C
$GPGSA,A,3,12,25,32,24,06,02,19,29,,,,,1.0,0.6,0.8*39
$GNGSA,A,3,68,69,70,77,78,86,87,88,,,,,1.0,0.6,0.8*2B
$BDGSA,A,3,212,224,,,,,,,,,,,1.0,0.6,0.8*29
$GPRMC,045727.000,A,5159.1045,N,00421.2127,E,16.5,167.5,270621,,,A*53
$GPGGA,045728.000,5159.0999,N,00421.2141,E,1,18,0.6,-8.5,M,47.1,M,,*7D
$GPGLL,5159.0999,N,00421.2141,E,045728.000,A,A*55
$GPVTG,167.3,T,,M,16.7,N,31.0,K,A*0C
$GPGSV,2,1,08,02,21,105,39,06,22,072,35,12,81,056,37,19,17,040,36*7A
$GPGSV,2,2,08,24,41,134,39,25,58,259,35,29,14,195,33,32,42,280,42*74
$GLGSV,3,1,09,68,23,241,33,69,33,300,37,70,05,354,18,77,38,085,35*67
$GLGSV,3,2,09,78,71,335,37,79,23,288,32,86,13,017,25,87,48,085,45*6B
$GLGSV,3,3,09,88,33,140,43*5E
$BDGSV,2,1,08,205,13,118,15,208,20,061,28,210,03,068,21,211,18,171,37*6A
$BDGSV,2,2,08,212,48,118,38,223,21,286,28,224,44,105,44,225,72,289,34*6C
$GPGSA,A,3,12,25,32,24,06,02,19,29,,,,,1.2,0.6,1.0*32
$GNGSA,A,3,68,69,77,78,79,86,87,88,,,,,1.2,0.6,1.0*29
$BDGSA,A,3,212,224,,,,,,,,,,,1.2,0.6,1.0*22
$GPRMC,045728.000,A,5159.0999,N,00421.2141,E,16.7,167.3,270621,,,A*51
$GPGGA,045729.000,5159.0954,N,00421.2161,E,1,18,0.6,-8.1,M,47.1,M,,*7B
$GPGLL,5159.0954,N,00421.2161,E,045729.000,A,A*57
$GPVTG,166.8,T,,M,16.6,N,30.7,K,A*01
$GPGSV,2,1,08,02,21,105,39,06,22,072,35,12,81,056,36,19,17,040,35*78
$GPGSV,2,2,08,24,41,134,40,25,58,259,35,29,14,195,32,32,42,280,42*7B
$GLGSV,3,1,09,68,23,241,34,69,33,300,38,70,05,354,17,77,38,085,35*60
$GLGSV,3,2,09,78,71,335,37,79,23,288,32,86,13,017,29,87,48,085,45*67
$GLGSV,3,3,09,88,33,140,43*5E
$BDGSV,2,1,08,205,13,118,13,208,20,061,28,210,03,068,20,211,19,171,37*6C
$BDGSV,2,2,08,212,48,118,39,223,21,286,28,224,44,105,44,225,72,289,34*6D
$GPGSA,A,3,12,25,32,24,06,02,19,29,,,,,1.2,0.6,1.0*32
$GNGSA,A,3,68,69,77,78,79,86,87,88,,,,,1.2,0.6,1.0*29
$BDGSA,A,3,212,224,,,,,,,,,,,1.2,0.6,1.0*22
$GPRMC,045729.000,A,5159.0954,N,00421.2161,E,16.6,166.8,270621,,,A*58
$GPGGA,045730.000,5159.0910,N,00421.2180,E,1,18,0.6,-8.4,M,47.1,M,,*79
$GPGLL,5159.0910,N,00421.2180,E,045730.000,A,A*50
$GPVTG,166.9,T,,M,16.4,N,30.4,K,A*01
$GPGSV,2,1,08,02,21,105,39,06,22,072,35,12,81,056,36,19,17,040,35*78
$GPGSV,2,2,08,24,41,134,40,25,58,259,35,29,14,195,32,32,42,280,43*7A
$GLGSV,3,1,09,68,23,241,37,69,33,300,38,70,05,354,17,77,38,085,35*63
$GLGSV,3,2,09,78,71,335,37,79,23,288,32,86,13,017,29,87,48,085,45*67
$GLGSV,3,3,09,88,33,140,43*5E
$BDGSV,2,1,08,205,13,118,12,208,20,061,28,210,03,068,20,211,19,171,37*6D
$BDGSV,2,2,08,212,48,118,39,223,21,286,28,224,44,105,44,225,72,289,34*6D
$GPGSA,A,3,12,25,32,24,06,02,19,29,,,,,1.2,0.6,1.0*32
$GNGSA,A,3,68,69,77,78,79,86,87,88,,,,,1.2,0.6,1.0*29
$BDGSA,A,3,212,224,,,,,,,,,,,1.2,0.6,1.0*22
$GPRMC,045730.000,A,5159.0910,N,00421.2180,E,16.4,166.9,270621,,,A*5C
$GPGGA,045731.000,5159.0865,N,00421.2197,E,1,18,0.6,-8.3,M,47.1,M,,*7A
$GPGLL,5159.0865,N,00421.2197,E,045731.000,A,A*54
$GPVTG,165.9,T,,M,16.1,N,29.8,K,A*03
$GPGSV,2,1,08,02,21,105,39,06,22,072,35,12,81,056,36,19,17,040,34*79
$GPGSV,2,2,08,24,41,134,40,25,58,259,35,29,14,195,36,32,42,280,43*7E
$GLGSV,3,1,09,68,23,241,36,69,33,300,38,70,05,354,17,77,38,085,35*62
$GLGSV,3,2,09,78,71,335,37,79,23,288,33,86,13,017,28,87,48,085,45*67
$GLGSV,3,3,09,88,33,140,43*5E
$BDGSV,2,1,08,205,13,118,10,208,20,061,30,210,03,068,19,211,19,171,37*6C
$BDGSV,2,2,08,212,48,118,39,223,21,286,28,224,44,105,44,225,72,289,34*6D
$GPGSA,A,3,12,25,32,24,06,02,19,29,,,,,1.2,0.6,1.0*32
$GNGSA,A,3,68,69,77,78,79,86,87,88,,,,,1.2,0.6,1.0*29
$BDGSA,A,3,212,224,,,,,,,,,,,1.2,0.6,1.0*22
$GPRMC,045731.000,A,5159.0865,N,00421.2197,E,16.1,165.9,270621,,,A*5E
$GPGGA,045732.000,5159.0818,N,00421.2214,E,1,18,0.6,-8.4,M,47.1,M,,*7C
$GPGLL,5159.0818,N,00421.2214,E,045732.000,A,A*55
$GPVTG,165.0,T,,M,16.3,N,30.1,K,A*09
$GPGSV,2,1,08,02,21,105,38,06,22,072,35,12,81,056,36,19,17,040,34*78
$GPGSV,2,2,08,24,41,134,40,25,58,259,35,29,14,195,37,32,42,280,43*7F
$GLGSV,3,1,09,68,23,241,36,69,33,300,38,70,05,354,17,77,38,085,35*62
$GLGSV,3,2,09,78,71,335,37,79,23,288,33,86,13,017,28,87,48,085,45*67
$GLGSV,3,3,09,88,33,140,43*5E
$BDGSV,2,1,08,205,13,118,09,208,20,061,30,210,03,068,19,211,19,171,37*64
$BDGSV,2,2,08,212,48,118,39,223,21,286,28,224,44,105,44,225,72,289,34*6D
$GPGSA,A,3,12,25,32,24,06,02,19,29,,,,,1.2,0.6,1.0*32
$GNGSA,A,3,68,69,77,78,79,86,87,88,,,,,1.2,0.6,1.0*29
$BDGSA,A,3,212,224,,,,,,,,,,,1.2,0.6,1.0*22
$GPRMC,045732.000,A,5159.0818,N,00421.2214,E,16.3,165.0,270621,,,A*54
$GPGGA,045733.000,5159.0774,N,00421.2231,E,1,17,0.6,-8.1,M,47.1,M,,*75
$GPGLL,5159.0774,N,00421.2231,E,045733.000,A,A*56
$GPVTG,168.0,T,,M,16.9,N,31.2,K,A*0C
$GPGSV,2,1,08,02,21,105,38,06,22,072,35,12,81,056,36,19,17,040,34*78
$GPGSV,2,2,08,24,41,134,40,25,58,259,36,29,14,195,37,32,42,280,43*7C
$GLGSV,3,1,09,68,23,241,35,69,33,300,38,70,05,354,17,77,38,085,35*61
$GLGSV,3,2,09,78,71,335,37,79,23,288,33,86,13,017,29,87,48,085,45*66
$GLGSV,3,3,09,88,33,140,43*5E
$BDGSV,2,1,08,205,13,118,08,208,20,061,30,210,03,068,19,211,19,171,37*65
$BDGSV,2,2,08,212,48,118,39,223,22,286,28,224,44,105,44,225,74,289,34*68
$GPGSA,A,3,12,25,32,24,06,02,29,,,,,,1.2,0.6,1.0*3A
$GNGSA,A,3,68,69,77,78,79,86,87,88,,,,,1.2,0.6,1.0*29
$BDGSA,A,3,212,224,,,,,,,,,,,1.2,0.6,1.0*22
$GPRMC,045733.000,A,5159.0774,N,00421.2231,E,16.9,168.0,270621,,,A*50
$GPGGA,045734.000,5159.0729,N,00421.2244,E,1,19,0.6,-8.0,M,47.1,M,,*77
$GPGLL,5159.0729,N,00421.2244,E,045734.000,A,A*5B
$GPVTG,169.0,T,,M,17.0,N,31.4,K,A*03
$GPGSV,2,1,08,02,21,105,37,06,22,072,35,12,81,056,36,19,17,040,34*77
$GPGSV,2,2,08,24,40,134,40,25,58,259,36,29,14,195,36,32,42,280,43*7C
$GLGSV,3,1,09,68,23,241,35,69,33,300,37,70,05,354,17,77,38,085,36*6D
$GLGSV,3,2,09,78,71,335,37,79,23,288,32,86,13,017,29,87,48,085,45*67
$GLGSV,3,3,09,88,33,140,43*5E
$BDGSV,2,1,08,205,13,118,07,208,20,061,30,210,03,068,18,211,19,171,37*6B
$BDGSV,2,2,08,212,48,118,39,223,22,286,28,224,44,105,44,225,74,289,35*69
$GPGSA,A,3,12,25,32,24,06,02,19,29,,,,,1.0,0.6,0.8*39
$GNGSA,A,3,68,69,70,77,78,79,86,87,88,,,,1.0,0.6,0.8*25
$BDGSA,A,3,212,224,,,,,,,,,,,1.0,0.6,0.8*29
$GPRMC,045734.000,A,5159.0729,N,00421.2244,E,17.0,169.0,270621,,,A*54
$GPGGA,045735.000,5159.0683,N,00421.2261,E,1,19,0.6,-7.7,M,47.1,M,,*78
$GPGLL,5159.0683,N,00421.2261,E,045735.000,A,A*5C
$GPVTG,168.2,T,,M,16.3,N,30.1,K,A*06
$GPGSV,2,1,08,02,21,105,37,06,22,072,35,12,81,056,36,19,17,040,33*70
$GPGSV,2,2,08,24,40,134,40,25,58,259,36,29,14,195,36,32,42,280,42*7D
$GLGSV,3,1,09,68,23,241,35,69,33,300,37,70,05,354,16,77,38,085,36*6C
$GLGSV,3,2,09,78,71,335,37,79,23,288,32,86,13,017,28,87,48,085,45*66
$GLGSV,3,3,09,88,33,140,43*5E
$BDGSV,2,1,07,208,20,061,30,210,03,068,18,211,19,171,37,212,48,118,39*61
$BDGSV,2,2,07,223,22,286,28,224,44,105,44,225,74,289,35*69
$GPGSA,A,3,12,25,32,24,06,02,19,29,,,,,1.0,0.6,0.8*39
$GNGSA,A,3,68,69,70,77,78,79,86,87,88,,,,1.0,0.6,0.8*25
$BDGSA,A,3,212,224,,,,,,,,,,,1.0,0.6,0.8*29
$GPRMC,045735.000,A,5159.0683,N,00421.2261,E,16.3,168.2,270621,,,A*52
$GPGGA,045736.000,5159.0637,N,00421.2278,E,1,18,0.6,-7.8,M,47.1,M,,*72
$GPGLL,5159.0637,N,00421.2278,E,045736.000,A,A*58
$GPVTG,168.5,T,,M,16.2,N,30.0,K,A*01
$GPGSV,2,1,08,02,21,105,39,06,22,072,34,12,81,056,36,19,17,040,33*7F
$GPGSV,2,2,08,24,40,134,41,25,58,259,36,29,14,195,37,32,42,280,42*7D
$GLGSV,3,1,09,68,23,241,34,69,33,300,37,70,05,354,16,77,38,085,36*6D
$GLGSV,3,2,09,78,71,335,37,79,23,288,32,86,13,017,28,87,48,085,45*66
$GLGSV,3,3,09,88,33,140,44*59
$BDGSV,2,1,07,208,20,061,28,210,03,068,18,211,19,171,38,212,49,118,39*66
$BDGSV,2,2,07,223,22,286,28,224,44,105,43,225,74,289,35*6E
$GPGSA,A,3,12,25,32,24,06,02,19,29,,,,,1.2,0.6,1.0*32
$GNGSA,A,3,68,69,77,78,79,86,87,88,,,,,1.2,0.6,1.0*29
$BDGSA,A,3,212,224,,,,,,,,,,,1.2,0.6,1.0*22
$GPRMC,045736.000,A,5159.0637,N,00421.2278,E,16.2,168.5,270621,,,A*50
$GPGGA,045737.000,5159.0593,N,00421.2293,E,1,17,0.6,-7.5,M,47.1,M,,*79
$GPGLL,5159.0593,N,00421.2293,E,045737.000,A,A*51
$GPVTG,167.5,T,,M,16.4,N,30.3,K,A*0B
$GPGSV,2,1,08,02,21,105,39,06,22,072,34,12,81,056,36,19,17,040,32*7E
$GPGSV,2,2,08,24,40,134,41,25,58,259,36,29,14,195,37,32,42,280,42*7D
$GLGSV,3,1,09,68,23,241,34,69,33,300,37,70,05,354,16,77,38,085,36*6D
$GLGSV,3,2,09,78,71,335,37,79,23,288,32,86,13,017,31,87,48,085,45*6E
$GLGSV,3,3,09,88,33,140,44*59
$BDGSV,2,1,07,208,20,061,27,210,03,068,17,211,19,171,38,212,49,118,39*66
$BDGSV,2,2,07,223,22,286,28,224,44,105,43,225,74,289,35*6E
$GPGSA,A,3,12,25,32,24,06,02,29,,,,,,1.2,0.6,1.0*3A
$GNGSA,A,3,68,69,77,78,79,86,87,88,,,,,1.2,0.6,1.0*29
$BDGSA,A,3,212,224,,,,,,,,,,,1.2,0.6,1.0*22
$GPRMC,045737.000,A,5159.0593,N,00421.2293,E,16.4,167.5,270621,,,A*50
$GPGGA,045738.000,5159.0550,N,00421.2309,E,1,18,0.6,-7.2,M,47.1,M,,*73
$GPGLL,5159.0550,N,00421.2309,E,045738.000,A,A*53
$GPVTG,167.3,T,,M,16.3,N,30.1,K,A*08
$GPGSV,2,1,08,02,21,105,38,06,22,072,33,12,81,056,36,19,17,040,31*7B
$GPGSV,2,2,08,24,40,134,41,25,58,259,36,29,14,195,36,32,42,279,42*7A
$GLGSV,3,1,09,68,23,241,34,69,33,300,37,70,05,354,16,77,38,085,36*6D
$GLGSV,3,2,09,78,71,335,37,79,23,288,34,86,13,017,30,87,48,085,45*69
$GLGSV,3,3,09,88,33,140,44*59
$BDGSV,2,1,07,208,20,061,25,210,03,068,17,211,19,171,38,212,49,118,39*64
$BDGSV,2,2,07,223,22,286,28,224,44,105,43,225,74,289,35*6E
$GPGSA,A,3,12,25,32,24,06,02,19,29,,,,,1.2,0.6,1.0*32
$GNGSA,A,3,68,69,77,78,79,86,87,88,,,,,1.2,0.6,1.0*29
$BDGSA,A,3,212,224,,,,,,,,,,,1.2,0.6,1.0*22
$GPRMC,045738.000,A,5159.0550,N,00421.2309,E,16.3,167.3,270621,,,A*53
$GPGGA,045739.000,5159.0510,N,00421.2327,E,1,19,0.4,-7.1,M,47.1,M,,*7A
$GPGLL,5159.0510,N,00421.2327,E,045739.000,A,A*5A
$GPVTG,167.9,T,,M,15.9,N,29.4,K,A*06
$GPGSV,2,1,08,02,21,105,38,06,22,072,33,12,81,056,36,19,17,040,30*7A
$GPGSV,2,2,08,24,40,134,41,25,58,259,36,29,14,195,35,32,42,279,42*79
$GLGSV,3,1,09,68,23,241,34,69,33,300,36,70,05,354,16,77,38,085,36*6C
$GLGSV,3,2,09,78,71,335,37,79,23,288,34,86,13,017,29,87,48,085,45*61
$GLGSV,3,3,09,88,33,140,44*59
$BDGSV,2,1,07,208,20,061,24,210,03,068,17,211,19,171,37,212,49,118,39*6A
$BDGSV,2,2,07,223,22,286,28,224,44,105,43,225,74,289,35*6E
$GPGSA,A,3,12,25,32,24,06,02,19,29,,,,,1.0,0.4,0.8*3B
$GNGSA,A,3,68,69,70,77,78,79,87,88,,,,,1.0,0.4,0.8*29
$BDGSA,A,3,211,212,224,,,,,,,,,,1.0,0.4,0.8*19
$GPRMC,045739.000,A,5159.0510,N,00421.2327,E,15.9,167.9,270621,,,A*59
$GPGGA,045740.000,5159.0467,N,00421.2342,E,1,19,0.4,-7.1,M,47.1,M,,*76
$GPGLL,5159.0467,N,00421.2342,E,045740.000,A,A*56
$GPVTG,166.9,T,,M,16.2,N,30.1,K,A*02
$GPGSV,2,1,08,02,21,105,37,06,22,072,33,12,81,056,36,19,17,040,31*74
$GPGSV,2,2,08,24,40,134,41,25,58,259,36,29,14,195,34,32,42,279,42*78
$GLGSV,3,1,09,68,23,241,34,69,33,300,36,70,05,354,16,77,38,085,36*6C
$GLGSV,3,2,09,78,71,335,37,79,23,288,33,86,13,017,28,87,48,085,45*67
$GLGSV,3,3,09,88,33,140,44*59
$BDGSV,2,1,07,208,20,061,22,210,03,068,17,211,19,171,37,212,49,118,39*6C
$BDGSV,2,2,07,223,22,286,28,224,44,105,43,225,74,289,35*6E
$GPGSA,A,3,12,25,32,24,06,02,19,29,,,,,1.0,0.4,0.8*3B
$GNGSA,A,3,68,69,70,77,78,79,87,88,,,,,1.0,0.4,0.8*29
$BDGSA,A,3,211,212,224,,,,,,,,,,1.0,0.4,0.8*19
$GPRMC,045740.000,A,5159.0467,N,00421.2342,E,16.2,166.9,270621,,,A*5C
$GPGGA,045741.000,5159.0424,N,00421.2359,E,1,20,0.4,-7.1,M,47.1,M,,*70
$GPGLL,5159.0424,N,00421.2359,E,045741.000,A,A*5A
$GPVTG,167.6,T,,M,16.3,N,30.2,K,A*0E
$GPGSV,2,1,08,02,21,105,37,06,22,072,35,12,81,056,36,19,17,040,31*72
$GPGSV,2,2,08,24,40,134,41,25,58,259,36,29,14,195,38,32,42,279,41*77
$GLGSV,3,1,09,68,23,241,34,69,33,300,36,70,05,354,16,77,38,085,36*6C
$GLGSV,3,2,09,78,71,335,37,79,23,288,33,86,13,017,27,87,48,085,45*68
$GLGSV,3,3,09,88,33,140,43*5E
$BDGSV,2,1,07,208,20,061,21,210,03,068,16,211,19,171,37,212,49,118,39*6E
$BDGSV,2,2,07,223,22,286,28,224,44,105,43,225,74,289,35*6E
$GPGSA,A,3,12,25,32,24,06,02,19,29,,,,,1.0,0.4,0.8*3B
$GNGSA,A,3,68,69,70,77,78,79,86,87,88,,,,1.0,0.4,0.8*27
$BDGSA,A,3,211,212,224,,,,,,,,,,1.0,0.4,0.8*19
$GPRMC,045741.000,A,5159.0424,N,00421.2359,E,16.3,167.6,270621,,,A*5F
$GPGGA,045742.000,5159.0382,N,00421.2375,E,1,20,0.4,-7.8,M,47.1,M,,*7F
$GPGLL,5159.0382,N,00421.2375,E,045742.000,A,A*5C
$GPVTG,166.7,T,,M,16.2,N,30.1,K,A*0C
$GPGSV,2,1,08,02,21,105,37,06,22,072,37,12,81,056,36,19,17,040,31*70
$GPGSV,2,2,08,24,40,134,41,25,58,259,35,29,14,195,38,32,42,279,41*74
$GLGSV,3,1,09,68,23,241,34,69,33,300,35,70,05,354,16,77,38,085,36*6F
$GLGSV,3,2,09,78,71,335,37,79,23,288,33,86,13,017,27,87,48,085,45*68
$GLGSV,3,3,09,88,33,140,43*5E
$BDGSV,2,1,07,208,20,061,19,210,03,068,16,211,19,171,37,212,49,118,39*65
$BDGSV,2,2,07,223,22,286,28,224,44,105,44,225,74,289,35*69
$GPGSA,A,3,12,25,32,24,06,02,19,29,,,,,1.0,0.4,0.8*3B
$GNGSA,A,3,68,69,70,77,78,79,86,87,88,,,,1.0,0.4,0.8*27
$BDGSA,A,3,211,212,224,,,,,,,,,,1.0,0.4,0.8*19
$GPRMC,045742.000,A,5159.0382,N,00421.2375,E,16.2,166.7,270621,,,A*58
$GPGGA,045743.000,5159.0341,N,00421.2392,E,1,20,0.4,-8.3,M,47.1,M,,*7C
$GPGLL,5159.0341,N,00421.2392,E,045743.000,A,A*5B
$GPVTG,166.6,T,,M,16.1,N,29.8,K,A*0F
$GPGSV,2,1,08,02,21,105,41,06,22,072,37,12,81,056,36,19,17,040,31*71
$GPGSV,2,2,08,24,40,134,41,25,58,259,35,29,14,195,38,32,42,279,43*76
$GLGSV,3,1,09,68,23,241,34,69,33,300,35,70,05,354,16,77,38,085,36*6F
$GLGSV,3,2,09,78,71,335,37,79,23,288,33,86,12,017,26,87,48,085,45*68
$GLGSV,3,3,09,88,33,140,43*5E
$BDGSV,2,1,07,208,20,061,18,210,03,068,16,211,19,171,37,212,49,118,39*64
$BDGSV,2,2,07,223,22,286,28,224,44,105,44,225,74,289,35*69
$GPGSA,A,3,12,25,32,24,06,02,19,29,,,,,1.0,0.4,0.8*3B
$GNGSA,A,3,68,69,70,77,78,79,86,87,88,,,,1.0,0.4,0.8*27
$BDGSA,A,3,211,212,224,,,,,,,,,,1.0,0.4,0.8*19
$GPRMC,045743.000,A,5159.0341,N,00421.2392,E,16.1,166.6,270621,,,A*5D
$GPGGA,045744.000,5159.0299,N,00421.2413,E,1,20,0.4,-8.6,M,47.1,M,,*74
$GPGLL,5159.0299,N,00421.2413,E,045744.000,A,A*56
$GPVTG,165.9,T,,M,16.3,N,30.3,K,A*02
$GPGSV,2,1,08,02,21,105,41,06,22,072,37,12,81,056,35,19,17,040,31*72
$GPGSV,2,2,08,24,40,134,41,25,58,259,35,29,14,195,36,32,42,279,43*78
$GLGSV,3,1,09,68,23,241,33,69,33,300,35,70,05,354,16,77,38,085,36*68
$GLGSV,3,2,09,78,71,335,37,79,23,288,33,86,12,017,26,87,48,085,45*68
$GLGSV,3,3,09,88,33,140,42*5F
$BDGSV,2,1,08,205,13,118,35,208,20,061,16,210,03,068,16,211,19,171,37*60
$BDGSV,2,2,08,212,49,118,39,223,22,286,28,224,44,105,44,225,74,289,35*68
$GPGSA,A,3,12,25,32,24,06,02,19,29,,,,,1.0,0.4,0.8*3B
$GNGSA,A,3,68,69,70,77,78,79,86,87,88,,,,1.0,0.4,0.8*27
$BDGSA,A,3,211,212,224,,,,,,,,,,1.0,0.4,0.8*19
$GPRMC,045744.000,A,5159.0299,N,00421.2413,E,16.3,165.9,270621,,,A*5E
$GPGGA,045745.000,5159.0257,N,00421.2432,E,1,20,0.4,-8.9,M,47.1,M,,*7B
$GPGLL,5159.0257,N,00421.2432,E,045745.000,A,A*56
$GPVTG,166.8,T,,M,16.2,N,30.0,K,A*02
$GPGSV,2,1,08,02,21,105,41,06,22,072,37,12,81,056,35,19,17,040,32*71
$GPGSV,2,2,08,24,40,134,40,25,58,259,35,29,14,195,35,32,42,279,43*7A
$GLGSV,3,1,09,68,23,241,33,69,33,300,35,70,05,354,16,77,38,085,36*68
$GLGSV,3,2,09,78,71,335,37,79,23,288,33,86,12,017,25,87,48,085,45*6B
$GLGSV,3,3,09,88,33,140,42*5F
$BDGSV,2,1,08,205,13,118,35,208,20,061,31,210,03,068,23,211,19,171,37*63
$BDGSV,2,2,08,212,49,118,39,223,22,286,28,224,44,105,44,225,74,289,35*68
$GPGSA,A,3,12,25,32,24,06,02,19,29,,,,,1.0,0.4,0.8*3B
$GNGSA,A,3,68,69,70,77,78,79,86,87,88,,,,1.0,0.4,0.8*27
$BDGSA,A,3,211,212,224,,,,,,,,,,1.0,0.4,0.8*19
$GPRMC,045745.000,A,5159.0257,N,00421.2432,E,16.2,166.8,270621,,,A*5D
$GPGGA,045746.000,5159.0212,N,00421.2449,E,1,19,0.6,-8.5,M,47.1,M,,*71
$GPGLL,5159.0212,N,00421.2449,E,045746.000,A,A*58
$GPVTG,167.5,T,,M,16.2,N,29.9,K,A*0F
$GPGSV,2,1,08,02,21,105,40,06,22,072,37,12,81,056,35,19,17,040,34*76
$GPGSV,2,2,08,24,40,134,40,25,58,259,35,29,14,195,34,32,42,279,42*7A
$GLGSV,3,1,09,68,23,241,33,69,33,300,35,70,05,354,16,77,38,085,36*68
$GLGSV,3,2,09,78,71,335,37,79,23,288,33,86,12,017,30,87,48,085,45*6F
$GLGSV,3,3,09,88,33,140,42*5F
$BDGSV,2,1,08,205,13,118,34,208,20,061,31,210,03,068,23,211,19,171,37*62
$BDGSV,2,2,08,212,49,118,39,223,22,286,28,224,44,105,44,225,74,289,35*68
$GPGSA,A,3,12,25,32,24,06,02,19,29,,,,,1.0,0.6,1.0*30
$GNGSA,A,3,68,69,77,78,79,86,87,88,,,,,1.0,0.6,1.0*2B
$BDGSA,A,3,211,212,224,,,,,,,,,,1.0,0.6,1.0*12
$GPRMC,045746.000,A,5159.0212,N,00421.2449,E,16.2,167.5,270621,,,A*5F
$GPGGA,045747.000,5159.0167,N,00421.2463,E,1,19,0.6,-8.0,M,47.1,M,,*7C
$GPGLL,5159.0167,N,00421.2463,E,045747.000,A,A*50
$GPVTG,169.1,T,,M,16.1,N,29.7,K,A*08
$GPGSV,2,1,08,02,21,105,40,06,22,072,37,12,81,056,35,19,17,040,34*76
$GPGSV,2,2,08,24,40,134,40,25,58,259,35,29,14,195,34,32,42,279,42*7A
$GLGSV,3,1,09,68,23,241,33,69,33,300,35,70,05,354,16,77,38,085,36*68
$GLGSV,3,2,09,78,71,335,37,79,23,288,32,86,12,017,30,87,48,085,45*6E
$GLGSV,3,3,09,88,33,140,42*5F
$BDGSV,2,1,08,205,13,118,33,208,20,061,32,210,03,068,23,211,19,171,36*67
$BDGSV,2,2,08,212,49,118,39,223,22,286,28,224,44,105,44,225,74,289,35*68
$GPGSA,A,3,12,25,32,24,06,02,19,29,,,,,1.0,0.6,1.0*30
$GNGSA,A,3,68,69,77,78,79,86,87,88,,,,,1.0,0.6,1.0*2B
$BDGSA,A,3,211,212,224,,,,,,,,,,1.0,0.6,1.0*12
$GPRMC,045747.000,A,5159.0167,N,00421.2463,E,16.1,169.1,270621,,,A*5E
$GPGGA,045748.000,5159.0121,N,00421.2482,E,1,20,0.4,-7.5,M,47.1,M,,*7C
$GPGLL,5159.0121,N,00421.2482,E,045748.000,A,A*52
$GPVTG,167.5,T,,M,16.3,N,30.2,K,A*0D
$GPGSV,2,1,08,02,21,105,39,06,22,072,37,12,81,056,35,19,17,040,33*7F
$GPGSV,2,2,08,24,40,134,40,25,58,259,35,29,14,195,33,32,42,279,41*7E
$GLGSV,3,1,09,68,23,241,32,69,33,300,35,70,05,354,17,77,38,085,36*68
$GLGSV,3,2,09,78,71,335,37,79,23,288,33,86,12,017,30,87,48,085,45*6F
$GLGSV,3,3,09,88,33,140,42*5F
$BDGSV,2,1,08,205,13,118,33,208,20,061,32,210,03,068,23,211,19,171,36*67
$BDGSV,2,2,08,212,49,118,39,223,22,286,27,224,44,105,44,225,74,289,35*67
$GPGSA,A,3,12,25,32,24,06,02,19,29,,,,,1.0,0.4,0.8*3B
$GNGSA,A,3,68,69,70,77,78,79,86,87,88,,,,1.0,0.4,0.8*27
$BDGSA,A,3,211,212,224,,,,,,,,,,1.0,0.4,0.8*19
$GPRMC,045748.000,A,5159.0121,N,00421.2482,E,16.3,167.5,270621,,,A*54
$GPGGA,045749.000,5159.0076,N,00421.2498,E,1,19,0.6,-7.3,M,47.1,M,,*7B
$GPGLL,5159.0076,N,00421.2498,E,045749.000,A,A*5B
$GPVTG,167.4,T,,M,16.4,N,30.3,K,A*0A
$GPGSV,2,1,08,02,21,105,39,06,22,072,36,12,81,056,35,19,17,040,33*7E
$GPGSV,2,2,08,24,40,134,41,25,58,259,35,29,14,195,33,32,42,279,41*7F
$GLGSV,3,1,09,68,23,241,32,69,33,299,35,70,06,354,17,77,38,085,36*6A
$GLGSV,3,2,09,78,71,335,37,79,23,288,34,86,12,017,30,87,48,084,45*69
$GLGSV,3,3,09,88,33,139,42*51
$BDGSV,2,1,08,205,13,118,32,208,20,061,31,210,03,068,23,211,19,171,36*65
$BDGSV,2,2,08,212,49,118,39,223,22,286,27,224,44,105,44,225,74,289,35*67
$GPGSA,A,3,12,25,32,24,06,02,19,29,,,,,1.0,0.6,1.0*30
$GNGSA,A,3,68,69,77,78,79,86,87,88,,,,,1.0,0.6,1.0*2B
$BDGSA,A,3,211,212,224,,,,,,,,,,1.0,0.6,1.0*12
$GPRMC,045749.000,A,5159.0076,N,00421.2498,E,16.4,167.4,270621,,,A*5B
$GPGGA,045750.000,5159.0030,N,00421.2514,E,1,19,0.6,-7.5,M,47.1,M,,*72
$GPGLL,5159.0030,N,00421.2514,E,045750.000,A,A*54
$GPVTG,166.0,T,,M,16.4,N,30.4,K,A*08
$GPGSV,2,1,08,02,21,105,39,06,22,072,36,12,81,056,35,19,17,040,33*7E
$GPGSV,2,2,08,24,40,134,41,25,58,259,34,29,14,195,37,32,42,279,41*7A
$GLGSV,3,1,09,68,23,241,32,69,33,299,34,70,06,354,17,77,38,085,36*6B
$GLGSV,3,2,09,78,71,335,37,79,23,288,34,86,12,017,30,87,48,084,45*69
$GLGSV,3,3,09,88,33,139,42*51
$BDGSV,2,1,08,205,13,118,32,208,20,061,31,210,03,068,23,211,19,171,36*65
$BDGSV,2,2,08,212,49,118,39,223,22,286,27,224,44,105,44,225,74,289,34*66
$GPGSA,A,3,12,25,32,24,06,02,19,29,,,,,1.0,0.6,1.0*30
$GNGSA,A,3,68,69,77,78,79,86,87,88,,,,,1.0,0.6,1.0*2B
$BDGSA,A,3,211,212,224,,,,,,,,,,1.0,0.6,1.0*12
$GPRMC,045750.000,A,5159.0030,N,00421.2514,E,16.4,166.0,270621,,,A*51
$GPGGA,045751.000,5158.9985,N,00421.2527,E,1,20,0.4,-7.6,M,47.1,M,,*77
$GPGLL,5158.9985,N,00421.2527,E,045751.000,A,A*5A
$GPVTG,168.5,T,,M,16.7,N,30.9,K,A*0D
$GPGSV,2,1,08,02,21,105,39,06,22,072,36,12,81,056,35,19,17,040,33*7E
$GPGSV,2,2,08,24,40,134,41,25,58,259,34,29,14,195,37,32,42,279,40*7B
$GLGSV,3,1,09,68,23,241,36,69,33,299,34,70,06,354,17,77,38,085,37*6E
$GLGSV,3,2,09,78,71,335,37,79,23,288,33,86,12,017,30,87,48,084,45*6E
$GLGSV,3,3,09,88,33,139,42*51
$BDGSV,2,1,08,205,13,118,31,208,20,061,31,210,03,068,22,211,19,171,36*67
$BDGSV,2,2,08,212,49,118,39,223,22,286,27,224,44,105,44,225,74,289,34*66
$GPGSA,A,3,12,25,32,24,06,02,19,29,,,,,1.0,0.4,0.8*3B
$GNGSA,A,3,68,69,70,77,78,79,86,87,88,,,,1.0,0.4,0.8*27
$BDGSA,A,3,211,212,224,,,,,,,,,,1.0,0.4,0.8*19
$GPRMC,045751.000,A,5158.9985,N,00421.2527,E,16.7,168.5,270621,,,A*57
$GPGGA,045752.000,5158.9939,N,00421.2540,E,1,19,0.6,-7.7,M,47.1,M,,*7B
$GPGLL,5158.9939,N,00421.2540,E,045752.000,A,A*5F
$GPVTG,169.6,T,,M,16.8,N,31.1,K,A*09
$GPGSV,2,1,08,02,21,105,39,06,22,072,35,12,81,056,35,19,17,040,33*7D
$GPGSV,2,2,08,24,40,134,41,25,58,259,34,29,14,195,37,32,42,279,40*7B
$GLGSV,3,1,09,68,23,241,35,69,33,299,34,70,06,354,17,77,38,085,37*6D
$GLGSV,3,2,09,78,71,335,37,79,23,288,34,86,12,017,29,87,48,084,45*61
$GLGSV,3,3,09,88,33,139,42*51
$BDGSV,2,1,08,205,13,118,31,208,20,061,32,210,03,068,22,211,19,171,37*65
$BDGSV,2,2,08,212,49,118,39,223,22,286,27,224,44,105,44,225,74,289,34*66
$GPGSA,A,3,12,25,32,24,06,02,19,29,,,,,1.0,0.6,1.0*30
$GNGSA,A,3,68,69,77,78,79,86,87,88,,,,,1.0,0.6,1.0*2B
$BDGSA,A,3,211,212,224,,,,,,,,,,1.0,0.6,1.0*12
$GPRMC,045752.000,A,5158.9939,N,00421.2540,E,16.8,169.6,270621,,,A*5F
$GPGGA,045753.000,5158.9895,N,00421.2555,E,1,20,0.4,-7.9,M,47.1,M,,*7F
$GPGLL,5158.9895,N,00421.2555,E,045753.000,A,A*5D
$GPVTG,167.6,T,,M,16.9,N,31.3,K,A*04
$GPGSV,2,1,08,02,21,105,42,06,22,072,35,12,81,056,35,19,17,040,33*71
$GPGSV,2,2,08,24,40,134,40,25,58,259,34,29,14,195,37,32,42,279,40*7A
$GLGSV,3,1,09,68,23,241,35,69,33,299,34,70,06,354,17,77,38,085,37*6D
$GLGSV,3,2,09,78,71,335,37,79,23,288,34,86,12,017,28,87,48,084,45*60
$GLGSV,3,3,09,88,33,139,41*52
$BDGSV,2,1,08,205,13,118,31,208,20,061,32,210,03,068,21,211,19,171,37*66
$BDGSV,2,2,08,212,49,118,39,223,22,286,27,224,44,105,43,225,74,289,34*61
$GPGSA,A,3,12,25,32,24,06,02,19,29,,,,,1.0,0.4,0.8*3B
$GNGSA,A,3,68,69,70,77,78,79,86,87,88,,,,1.0,0.4,0.8*27
$BDGSA,A,3,211,212,224,,,,,,,,,,1.0,0.4,0.8*19
$GPRMC,045753.000,A,5158.9895,N,00421.2555,E,16.9,167.6,270621,,,A*52
$GPGGA,045754.000,5158.9849,N,00421.2573,E,1,20,0.4,-8.0,M,47.1,M,,*7B
$GPGLL,5158.9849,N,00421.2573,E,045754.000,A,A*5F
$GPVTG,167.8,T,,M,17.0,N,31.4,K,A*05
$GPGSV,2,1,08,02,21,105,42,06,22,072,38,12,81,056,35,19,17,040,33*7C
$GPGSV,2,2,08,24,40,134,40,25,58,259,34,29,14,195,37,32,42,279,40*7A
$GLGSV,3,1,09,68,23,241,35,69,33,299,35,70,06,354,17,77,38,085,37*6C
$GLGSV,3,2,09,78,71,335,37,79,23,288,34,86,12,017,28,87,48,084,45*60
$GLGSV,3,3,09,88,33,139,41*52
$BDGSV,2,1,08,205,13,118,30,208,20,061,32,210,03,068,21,211,19,171,37*67
$BDGSV,2,2,08,212,49,118,39,223,22,286,27,224,44,105,43,225,74,289,34*61
$GPGSA,A,3,12,25,32,24,06,02,19,29,,,,,1.0,0.4,0.8*3B
$GNGSA,A,3,68,69,70,77,78,79,86,87,88,,,,1.0,0.4,0.8*27
$BDGSA,A,3,211,212,224,,,,,,,,,,1.0,0.4,0.8*19
$GPRMC,045754.000,A,5158.9849,N,00421.2573,E,17.0,167.8,270621,,,A*56
$GPGGA,045755.000,5158.9803,N,00421.2593,E,1,20,0.4,-7.7,M,47.1,M,,*72
$GPGLL,5158.9803,N,00421.2593,E,045755.000,A,A*5E
$GPVTG,167.1,T,,M,17.0,N,31.5,K,A*0D
$GPGSV,2,1,08,02,21,105,42,06,22,072,38,12,81,056,35,19,17,040,33*7C
$GPGSV,2,2,08,24,40,134,39,25,58,259,35,29,14,195,36,32,42,279,41*75
$GLGSV,3,1,09,68,23,241,35,69,33,299,35,70,06,354,17,77,38,085,37*6C
$GLGSV,3,2,09,78,71,335,37,79,23,288,34,86,12,017,29,87,48,084,45*61
$GLGSV,3,3,09,88,33,139,41*52
$BDGSV,2,1,08,205,13,118,30,208,20,061,33,210,03,068,20,211,19,171,37*67
$BDGSV,2,2,08,212,49,118,38,223,22,286,27,224,44,105,43,225,74,289,34*60
$GPGSA,A,3,12,25,32,24,06,02,19,29,,,,,1.0,0.4,0.8*3B
$GNGSA,A,3,68,69,70,77,78,79,86,87,88,,,,1.0,0.4,0.8*27
$BDGSA,A,3,211,212,224,,,,,,,,,,1.0,0.4,0.8*19
$GPRMC,045755.000,A,5158.9803,N,00421.2593,E,17.0,167.1,270621,,,A*5E
$GPGGA,045756.000,5158.9757,N,00421.2612,E,1,20,0.4,-7.2,M,47.1,M,,*70
$GPGLL,5158.9757,N,00421.2612,E,045756.000,A,A*59
$GPVTG,167.0,T,,M,17.0,N,31.5,K,A*0C
$GPGSV,2,1,08,02,21,105,42,06,22,072,38,12,81,056,35,19,17,040,32*7D
$GPGSV,2,2,08,24,40,134,39,25,58,259,35,29,14,195,36,32,42,279,42*76
$GLGSV,3,1,09,68,23,241,35,69,33,299,36,70,06,354,17,77,38,085,36*6E
$GLGSV,3,2,09,78,71,335,37,79,23,288,34,86,12,017,29,87,48,084,44*60
$GLGSV,3,3,09,88,33,139,44*57
$BDGSV,2,1,08,205,13,118,30,208,20,061,33,210,03,068,20,211,19,171,38*68
$BDGSV,2,2,08,212,49,118,38,223,22,286,28,224,44,105,42,225,74,289,34*6E
$GPGSA,A,3,12,25,32,24,06,02,19,29,,,,,1.0,0.4,0.8*3B
$GNGSA,A,3,68,69,70,77,78,79,86,87,88,,,,1.0,0.4,0.8*27
$BDGSA,A,3,211,212,224,,,,,,,,,,1.0,0.4,0.8*19
$GPRMC,045756.000,A,5158.9757,N,00421.2612,E,17.0,167.0,270621,,,A*58
$GPGGA,045757.000,5158.9711,N,00421.2629,E,1,20,0.4,-7.2,M,47.1,M,,*7B
$GPGLL,5158.9711,N,00421.2629,E,045757.000,A,A*52
$GPVTG,166.6,T,,M,17.0,N,31.5,K,A*0B
$GPGSV,2,1,08,02,21,105,42,06,22,072,38,12,81,056,35,19,17,040,32*7D
$GPGSV,2,2,08,24,40,134,42,25,58,259,35,29,14,195,35,32,42,279,42*79
$GLGSV,3,1,09,68,23,241,35,69,33,299,36,70,06,354,17,77,38,085,36*6E
$GLGSV,3,2,09,78,71,335,37,79,23,288,34,86,12,017,29,87,48,084,44*60
$GLGSV,3,3,09,88,33,139,44*57
$BDGSV,2,1,08,205,13,118,28,208,20,061,33,210,03,068,19,211,19,171,38*6B
$BDGSV,2,2,08,212,49,118,38,223,22,286,28,224,44,105,43,225,74,289,34*6F
$GPGSA,A,3,12,25,32,24,06,02,19,29,,,,,1.0,0.4,0.8*3B
$GNGSA,A,3,68,69,70,77,78,79,86,87,88,,,,1.0,0.4,0.8*27
$BDGSA,A,3,211,212,224,,,,,,,,,,1.0,0.4,0.8*19
$GPRMC,045757.000,A,5158.9711,N,00421.2629,E,17.0,166.6,270621,,,A*54
$GPGGA,045758.000,5158.9667,N,00421.2648,E,1,20,0.4,-7.1,M,47.1,M,,*70
$GPGLL,5158.9667,N,00421.2648,E,045758.000,A,A*5A
$GPVTG,164.7,T,,M,16.9,N,31.3,K,A*06
$GPGSV,2,1,08,02,21,105,41,06,22,071,37,12,81,056,35,19,17,040,32*72
$GPGSV,2,2,08,24,40,134,42,25,58,259,35,29,14,195,36,32,42,279,42*7A
$GLGSV,3,1,09,68,23,241,35,69,33,299,36,70,06,354,18,77,38,085,36*61
$GLGSV,3,2,09,78,71,336,37,79,24,288,34,86,12,017,29,87,48,084,44*64
$GLGSV,3,3,09,88,33,139,44*57
$BDGSV,2,1,08,205,13,118,27,208,20,061,33,210,03,068,19,211,19,171,38*64
$BDGSV,2,2,08,212,49,118,37,223,22,286,28,224,44,105,43,225,74,289,34*60
$GPGSA,A,3,12,25,32,24,06,02,19,29,,,,,1.0,0.4,0.8*3B
$GNGSA,A,3,68,69,70,77,78,79,86,87,88,,,,1.0,0.4,0.8*27
$BDGSA,A,3,211,212,224,,,,,,,,,,1.0,0.4,0.8*19
$GPRMC,045758.000,A,5158.9667,N,00421.2648,E,16.9,164.7,270621,,,A*57
$GPGGA,045759.000,5158.9621,N,00421.2665,E,1,20,0.4,-7.1,M,47.1,M,,*7C
$GPGLL,5158.9621,N,00421.2665,E,045759.000,A,A*56
$GPVTG,166.6,T,,M,16.7,N,31.0,K,A*08
$GPGSV,2,1,08,02,21,105,41,06,22,071,37,12,81,056,35,19,17,040,32*72
$GPGSV,2,2,08,24,40,134,42,25,58,259,36,29,14,195,39,32,42,279,42*76
$GLGSV,3,1,09,68,23,241,35,69,33,299,36,70,06,354,18,77,38,085,36*61
$GLGSV,3,2,09,78,71,336,37,79,24,288,34,86,12,017,29,87,48,084,45*65
$GLGSV,3,3,09,88,33,139,44*57
$BDGSV,2,1,08,205,13,118,25,208,20,061,32,210,03,068,19,211,19,171,38*67
$BDGSV,2,2,08,212,49,118,37,223,22,286,30,224,44,105,43,225,74,289,34*69
$GPGSA,A,3,12,25,32,24,06,02,19,29,,,,,1.0,0.4,0.8*3B
$GNGSA,A,3,68,69,70,77,78,79,86,87,88,,,,1.0,0.4,0.8*27
$BDGSA,A,3,211,212,224,,,,,,,,,,1.0,0.4,0.8*19
$GPRMC,045759.000,A,5158.9621,N,00421.2665,E,16.7,166.6,270621,,,A*56
$GPGGA,045800.000,5158.9575,N,00421.2683,E,1,20,0.4,-7.6,M,47.1,M,,*72
$GPGLL,5158.9575,N,00421.2683,E,045800.000,A,A*5F
$GPVTG,164.8,T,,M,16.8,N,31.2,K,A*09
$GPGSV,2,1,08,02,21,105,40,06,22,071,37,12,81,056,35,19,17,040,32*73
$GPGSV,2,2,08,24,40,134,42,25,58,259,36,29,14,195,39,32,42,279,43*77
$GLGSV,3,1,09,68,23,241,34,69,33,299,36,70,06,354,18,77,38,085,36*60
$GLGSV,3,2,09,78,71,336,37,79,24,288,35,86,12,017,29,87,48,084,45*64
$GLGSV,3,3,09,88,33,139,44*57
$BDGSV,2,1,08,205,13,118,24,208,20,061,32,210,03,068,18,211,19,171,38*67
$BDGSV,2,2,08,212,49,118,37,223,22,286,34,224,44,105,44,225,74,289,34*6A
$GPGSA,A,3,12,25,32,24,06,02,19,29,,,,,1.0,0.4,0.8*3B
$GNGSA,A,3,68,69,70,77,78,79,86,87,88,,,,1.0,0.4,0.8*27
$BDGSA,A,3,211,212,224,,,,,,,,,,1.0,0.4,0.8*19
$GPRMC,045800.000,A,5158.9575,N,00421.2683,E,16.8,164.8,270621,,,A*5C
$GPGGA,045801.000,5158.9531,N,00421.2702,E,1,20,0.4,-8.2,M,47.1,M,,*70
$GPGLL,5158.9531,N,00421.2702,E,045801.000,A,A*56
$GPVTG,165.6,T,,M,16.8,N,31.1,K,A*05
$GPGSV,2,1,08,02,21,105,40,06,22,071,37,12,81,056,35,19,17,040,31*70
$GPGSV,2,2,08,24,40,134,42,25,58,259,36,29,14,195,39,32,42,279,43*77
$GLGSV,3,1,09,68,23,241,34,69,33,299,36,70,06,354,18,77,38,085,36*60
$GLGSV,3,2,09,78,71,336,37,79,24,288,34,86,12,017,29,87,48,084,45*65
$GLGSV,3,3,09,88,33,139,44*57
$BDGSV,2,1,08,205,13,118,22,208,20,061,32,210,03,068,18,211,19,171,38*61
$BDGSV,2,2,08,212,49,118,37,223,22,286,33,224,44,105,44,225,74,289,35*6C
$GPGSA,A,3,12,25,32,24,06,02,19,29,,,,,1.0,0.4,0.8*3B
$GNGSA,A,3,68,69,70,77,78,79,86,87,88,,,,1.0,0.4,0.8*27
$BDGSA,A,3,211,212,224,,,,,,,,,,1.0,0.4,0.8*19
$GPRMC,045801.000,A,5158.9531,N,00421.2702,E,16.8,165.6,270621,,,A*5A
$GPGGA,045802.000,5158.9486,N,00421.2718,E,1,19,0.6,-8.1,M,47.1,M,,*7E
$GPGLL,5158.9486,N,00421.2718,E,045802.000,A,A*53
$GPVTG,166.4,T,,M,16.5,N,30.6,K,A*0F
$GPGSV,2,1,08,02,21,105,40,06,22,071,36,12,81,056,35,19,17,040,34*74
$GPGSV,2,2,08,24,40,134,41,25,58,259,36,29,14,195,39,32,42,279,43*74
$GLGSV,3,1,09,68,23,241,39,69,33,299,36,70,06,354,18,77,38,085,36*6D
$GLGSV,3,2,09,78,71,336,37,79,24,288,34,86,12,017,28,87,48,084,45*64
$GLGSV,3,3,09,88,33,139,44*57
$BDGSV,2,1,08,205,13,118,21,208,20,061,31,210,03,068,18,211,19,171,38*61
$BDGSV,2,2,08,212,49,118,37,223,22,286,33,224,44,105,44,225,74,289,35*6C
$GPGSA,A,3,12,25,32,24,06,02,19,29,,,,,1.0,0.6,1.0*30
$GNGSA,A,3,68,69,77,78,79,86,87,88,,,,,1.0,0.6,1.0*2B
$BDGSA,A,3,211,212,224,,,,,,,,,,1.0,0.6,1.0*12
$GPRMC,045802.000,A,5158.9486,N,00421.2718,E,16.5,166.4,270621,,,A*53
$GPGGA,045803.000,5158.9441,N,00421.2735,E,1,19,0.6,-8.3,M,47.1,M,,*79
$GPGLL,5158.9441,N,00421.2735,E,045803.000,A,A*56
$GPVTG,168.3,T,,M,16.8,N,31.1,K,A*0D
$GPGSV,2,1,08,02,21,105,40,06,22,071,36,12,81,056,35,19,16,040,34*75
$GPGSV,2,2,08,24,40,134,41,25,58,259,36,29,14,195,39,32,42,279,43*74
$GLGSV,3,1,09,68,23,241,39,69,33,299,36,70,06,354,18,77,38,085,36*6D
$GLGSV,3,2,09,78,71,336,37,79,24,288,34,86,12,017,28,87,49,084,45*65
$GLGSV,3,3,09,88,33,139,44*57
$BDGSV,2,1,08,205,13,118,19,208,20,061,31,210,03,068,18,211,19,171,38*6A
$BDGSV,2,2,08,212,49,118,37,223,22,286,32,224,44,105,44,225,74,289,35*6D
$GPGSA,A,3,12,25,32,24,06,02,19,29,,,,,1.0,0.6,1.0*30
$GNGSA,A,3,68,69,77,78,79,86,87,88,,,,,1.0,0.6,1.0*2B
$BDGSA,A,3,211,212,224,,,,,,,,,,1.0,0.6,1.0*12
$GPRMC,045803.000,A,5158.9441,N,00421.2735,E,16.8,168.3,270621,,,A*52
$GPGGA,045804.000,5158.9396,N,00421.2750,E,1,19,0.6,-8.3,M,47.1,M,,*70
$GPGLL,5158.9396,N,00421.2750,E,045804.000,A,A*5F
$GPVTG,167.4,T,,M,16.9,N,31.3,K,A*06
$GPGSV,2,1,08,02,21,105,40,06,22,071,36,12,81,056,35,19,16,040,33*72
$GPGSV,2,2,08,24,40,135,41,25,58,259,36,29,14,195,39,32,42,279,43*75
$GLGSV,3,1,09,68,23,241,39,69,33,299,36,70,06,354,18,77,38,085,36*6D
$GLGSV,3,2,09,78,71,336,37,79,24,288,34,86,12,017,31,87,49,084,45*6D
$GLGSV,3,3,09,88,33,139,44*57
$BDGSV,2,1,08,205,13,118,18,208,20,061,31,210,03,068,17,211,19,171,38*64
$BDGSV,2,2,08,212,49,118,37,223,22,286,32,224,44,105,44,225,74,289,35*6D
$GPGSA,A,3,12,25,32,24,06,02,19,29,,,,,1.0,0.6,1.0*30
$GNGSA,A,3,68,69,77,78,79,86,87,88,,,,,1.0,0.6,1.0*2B
$BDGSA,A,3,211,212,224,,,,,,,,,,1.0,0.6,1.0*12
$GPRMC,045804.000,A,5158.9396,N,00421.2750,E,16.9,167.4,270621,,,A*52
$GPGGA,045805.000,5158.9350,N,00421.2771,E,1,19,0.6,-8.2,M,47.1,M,,*79
$GPGLL,5158.9350,N,00421.2771,E,045805.000,A,A*57
$GPVTG,166.3,T,,M,17.0,N,31.5,K,A*0E
$GPGSV,2,1,08,02,21,105,39,06,22,071,36,12,81,056,35,19,16,040,33*7C
$GPGSV,2,2,08,24,40,135,41,25,58,259,36,29,14,195,39,32,42,279,43*75
$GLGSV,3,1,09,68,23,241,39,69,33,299,37,70,06,354,18,77,38,085,37*6D
$GLGSV,3,2,09,78,71,336,37,79,24,288,34,86,12,017,30,87,49,084,45*6C
$GLGSV,3,3,09,88,33,139,44*57
$BDGSV,2,1,08,205,13,118,16,208,20,061,30,210,03,068,17,211,19,171,38*6B
$BDGSV,2,2,08,212,49,118,38,223,22,286,32,224,44,105,44,225,74,289,35*62
$GPGSA,A,3,12,25,32,24,06,02,19,29,,,,,1.0,0.6,1.0*30
$GNGSA,A,3,68,69,77,78,79,86,87,88,,,,,1.0,0.6,1.0*2B
$BDGSA,A,3,211,212,224,,,,,,,,,,1.0,0.6,1.0*12
$GPRMC,045805.000,A,5158.9350,N,00421.2771,E,17.0,166.3,270621,,,A*54
$GPGGA,045806.000,5158.9305,N,00421.2790,E,1,18,0.6,-8.5,M,47.1,M,,*73
$GPGLL,5158.9305,N,00421.2790,E,045806.000,A,A*5B
$GPVTG,167.2,T,,M,16.8,N,31.0,K,A*02
$GPGSV,2,1,08,02,21,105,39,06,22,071,35,12,81,056,35,19,16,040,31*7D
$GPGSV,2,2,08,24,40,135,41,25,58,259,36,29,14,195,38,32,42,279,43*74
$GLGSV,3,1,09,68,23,241,39,69,33,299,37,70,06,354,16,77,38,085,37*63
$GLGSV,3,2,09,78,71,336,37,79,24,288,35,86,12,017,29,87,49,084,45*65
$GLGSV,3,3,09,88,33,139,43*50
$BDGSV,2,1,08,205,13,118,15,208,20,061,29,210,03,068,17,211,19,171,38*60
$BDGSV,2,2,08,212,49,117,38,223,22,286,32,224,44,105,44,225,74,289,35*6D
$GPGSA,A,3,12,25,32,24,06,02,29,,,,,,1.2,0.6,1.0*3A
$GNGSA,A,3,68,69,77,78,79,86,87,88,,,,,1.2,0.6,1.0*29
$BDGSA,A,3,211,212,224,,,,,,,,,,1.2,0.6,1.0*10
$GPRMC,045806.000,A,5158.9305,N,00421.2790,E,16.8,167.2,270621,,,A*51
$GPGGA,045807.000,5158.9261,N,00421.2805,E,1,19,0.6,-8.0,M,47.1,M,,*76
$GPGLL,5158.9261,N,00421.2805,E,045807.000,A,A*5A
$GPVTG,166.5,T,,M,16.6,N,30.7,K,A*0C
$GPGSV,2,1,08,02,21,105,39,06,22,071,35,12,81,056,35,19,16,040,30*7C
$GPGSV,2,2,08,24,40,135,40,25,58,259,36,29,14,195,37,32,42,279,43*7A
$GLGSV,3,1,09,68,23,241,39,69,33,299,37,70,06,354,15,77,38,085,37*60
$GLGSV,3,2,09,78,71,336,37,79,24,288,35,86,12,017,29,87,49,084,45*65
$GLGSV,3,3,09,88,33,139,43*50
$BDGSV,2,1,08,205,13,118,13,208,20,061,28,210,03,068,17,211,19,171,38*67
$BDGSV,2,2,08,212,49,117,38,223,22,286,32,224,44,105,44,225,74,289,35*6D
$GPGSA,A,3,12,25,32,24,06,02,19,29,,,,,1.0,0.6,1.0*30
$GNGSA,A,3,68,69,77,78,79,86,87,88,,,,,1.0,0.6,1.0*2B
